,FACILITY ID,FACILITY NAME,PE DESCRIPTION,FACILITY ADDRESS,FACILITY CITY,FACILITY ZIP,FACILITY LATITUDE,FACILITY LONGITUDE,Location
1,FA0003446,ALOSTA SHELL,"FOOD MKT RETAIL (1-1,999 SF) LOW RISK",1860 E ROUTE 66,GLENDORA,91740,34.1282663517,-117.8293963169,"(34.1282663517, -117.8293963169)"
2,FA0004073,WORLD OIL,"FOOD MKT RETAIL (1-1,999 SF) LOW RISK",478 W ARROW HWY,COVINA,91722,34.106419732,-117.8985821409,"(34.106419732, -117.8985821409)"
12,FA0023436,FOOD 4 LESS #775,"FOOD MKT RETAIL (2,000+ SF) LOW RISK",12222 E CARSON ST,HAWAIIAN GARDENS,90716,33.8309480135,-118.0705072947,"(33.8309480135, -118.0705072947)"
37,FA0036549,TARGET STORES #,"FOOD MKT RETAIL (1-1,999 SF) LOW RISK",888 W ARROW HWY,SAN DIMAS,91773,34.1036390196,-117.82336875940001,"(34.1036390196, -117.8233687594)"
40,FA0052688,TOMAS MARKET,"FOOD MKT RETAIL (1-1,999 SF) HIGH RISK",4292 UNION PACIFIC AVE,LOS ANGELES,90023,34.0164206789,-118.1803317925,"(34.0164206789, -118.1803317925)"
43,FA0053690,VALERO,"FOOD MKT RETAIL (1-1,999 SF) LOW RISK",13758 E AMAR RD,LA PUENTE,91746,34.053487124600004,-117.9763411425,"(34.0534871246, -117.9763411425)"
50,FA0052426,TOY CHEVRON,"FOOD MKT RETAIL (1-1,999 SF) LOW RISK",1860 W AVENUE I,LANCASTER,93534,34.7036278739,-118.1654445928,"(34.7036278739, -118.1654445928)"
51,FA0004008,7-ELEVEN STORE #2175-18515E,"FOOD MKT RETAIL (2,000+ SF) LOW RISK",4383 TWEEDY BLVD,SOUTH GATE,90280,33.9433142953,-118.1948209033,"(33.9433142953, -118.1948209033)"
52,FA0002479,99 CENTS ONLY STORE,"FOOD MKT RETAIL (2,000+ SF) LOW RISK",1320 E ALONDRA BLVD,COMPTON,90221,33.888546159499995,-118.20832117200001,"(33.8885461595, -118.208321172)"
53,FA0167809,168 MARKET #806,"FOOD MKT RETAIL (1-1,999 SF) HIGH RISK",17120 COLIMA RD,HACIENDA HEIGHTS,91745,33.9898366072,-117.93415934629999,"(33.9898366072, -117.9341593463)"
55,FA0247863,7-ELEVEN STORE #16696F,"FOOD MKT RETAIL (2,000+ SF) LOW RISK",733 WASHINGTON BLVD,MONTEBELLO,90640-6222,33.993654104499996,-118.115739853,"(33.9936541045, -118.115739853)"
56,FA0002291,7-ELEVEN,"FOOD MKT RETAIL (1-1,999 SF) LOW RISK",6033 WHITTIER BLVD,LOS ANGELES,90022,34.0171951223,-118.1409348022,"(34.0171951223, -118.1409348022)"
57,FA0003026,24 HOUR FITNESS-CLUB 904,"FOOD MKT RETAIL (1-1,999 SF) LOW RISK",6653 FALLBROOK AVE,WEST HILLS,91307,34.1915062109,-118.6235342967,"(34.1915062109, -118.6235342967)"
58,FA0138199,7-ELEVEN STORE 39685A,"FOOD MKT RETAIL (1-1,999 SF) MODERATE RISK",12225 SANTA MONICA BLVD,SANTA MONICA,90025,34.0400791358,-118.4647955061,"(34.0400791358, -118.4647955061)"
59,FA0003350,24 HOUR FITNESS,"FOOD MKT RETAIL (1-1,999 SF) LOW RISK",21560 VALLEY BLVD,WALNUT,91789,34.0257165508,-117.83566600309999,"(34.0257165508, -117.8356660031)"
60,FA0056836,7-ELEVEN #19202-F,"FOOD MKT RETAIL (1-1,999 SF) LOW RISK",305 S SAN GABRIEL BLVD,SAN GABRIEL,91776,34.0987882419,-118.0913303207,"(34.0987882419, -118.0913303207)"
61,FA0172207,7-ELEVEN,"FOOD MKT RETAIL (1-1,999 SF) MODERATE RISK",380 WORLD WAY T85,LOS ANGELES,90045-5800,33.94359568,-118.40831387940001,"(33.94359568, -118.4083138794)"
62,FA0240486,98 CENTS PLUS SUPER DISCOUNT,"FOOD MKT RETAIL (1-1,999 SF) LOW RISK",13848 LOS ANGELES ST,BALDWIN PARK,91706,34.092129550100005,-117.97218517299999,"(34.0921295501, -117.972185173)"
63,FA0004319,99 CENTS ONLY STORE #0326,"FOOD MKT RETAIL (2,000+ SF) LOW RISK",38360 20TH ST E # #B,PALMDALE,93550,34.5791506449,-118.0940562632,"(34.5791506449, -118.0940562632)"
64,FA0003852,7-ELEVEN,"FOOD MKT RETAIL (1-1,999 SF) LOW RISK",1100 S LA BREA AVE,INGLEWOOD,90301,33.9487561651,-118.3523721761,"(33.9487561651, -118.3523721761)"
65,FA0259334,7-ELEVEN STORE #16187C,"FOOD MKT RETAIL (2,000+ SF) LOW RISK",1100 N LA CIENEGA BLVD,WEST HOLLYWOOD,90069,34.0908139489,-118.3762668432,"(34.0908139489, -118.3762668432)"
66,FA0149302,7 DAYS MARKET,"FOOD MKT RETAIL (1-1,999 SF) LOW RISK",4309 GRIFFIN AVE,LOS ANGELES,90031,34.0923046243,-118.20396917389999,"(34.0923046243, -118.2039691739)"
67,FA0138916,99 CENTS ONLY STORE,"FOOD MKT RETAIL (2,000+ SF) LOW RISK",619 E UNIVERSITY DR,CARSON,90746-1966,33.8590053367,-118.2653877662,"(33.8590053367, -118.2653877662)"
68,FA0002293,7-ELEVEN #24835-B,"FOOD MKT RETAIL (2,000+ SF) LOW RISK",11373 RIVERSIDE DR,NORTH HOLLYWOOD,91602,34.157321072100004,-118.37836444770001,"(34.1573210721, -118.3783644477)"
69,FA0172337,7-ELEVEN #18821-B,"FOOD MKT RETAIL (2,000+ SF) LOW RISK",11075 OLYMPIC BLVD,LOS ANGELES,90064,34.0405837724,-118.4376873822,"(34.0405837724, -118.4376873822)"
71,FA0004497,99 CENTS ONLY STORE #199,"FOOD MKT RETAIL (2,000+ SF) LOW RISK",15505 S NORMANDIE AVE,GARDENA,90247,33.8903209626,-118.2997223948,"(33.8903209626, -118.2997223948)"
74,FA0056764,7-ELEVEN #34571A,"FOOD MKT RETAIL (2,000+ SF) MODERATE RISK",2299 W 190TH ST,REDONDO BEACH,90278,33.8585481386,-118.3701691258,"(33.8585481386, -118.3701691258)"
75,FA0203410,7-ELEVEN STORE #39744A,"FOOD MKT RETAIL (1-1,999 SF) LOW RISK",5700 SANTA MONICA BLVD,LOS ANGELES,90038,34.0907232497,-118.313779184,"(34.0907232497, -118.313779184)"
76,FA0056572,2000 C-STORE,"FOOD MKT RETAIL (1-1,999 SF) LOW RISK",825 N CENTRAL AVE,GLENDALE,91203,34.1581731143,-118.2583595264,"(34.1581731143, -118.2583595264)"
77,FA0138438,7-ELEVEN #19399,"FOOD MKT RETAIL (2,000+ SF) LOW RISK",1665 S ROBERTSON BLVD,LOS ANGELES,90035,34.0490058964,-118.38560337,"(34.0490058964, -118.38560337)"
78,FA0137976,7-ELEVEN,"FOOD MKT RETAIL (2,000+ SF) LOW RISK",8543 ROSEMEAD BLVD,PICO RIVERA,90660,33.961482955,-118.1101625057,"(33.961482955, -118.1101625057)"
79,FA0002300,7-ELEVEN # 13839G,"FOOD MKT RETAIL (1-1,999 SF) LOW RISK",1111 N GARFIELD AVE,ALHAMBRA,91801,34.1048577365,-118.1342862266,"(34.1048577365, -118.1342862266)"
81,FA0003804,7-ELEVEN #25387-A,"FOOD MKT RETAIL (2,000+ SF) LOW RISK",1106 W BEVERLY BLVD,MONTEBELLO,90640,34.0181958869,-118.1100426359,"(34.0181958869, -118.1100426359)"
82,FA0025612,7-ELEVEN #39646A,"FOOD MKT RETAIL (1-1,999 SF) LOW RISK",504 W OLYMPIC BLVD,LOS ANGELES,90015,34.0431005891,-118.26103710950001,"(34.0431005891, -118.2610371095)"
83,FA0171896,7-ELEVEN STORE 39726A,"FOOD MKT RETAIL (1-1,999 SF) LOW RISK",3044 FOOTHILL BLVD,LA CRESCENTA,91214-2713,34.2276234255,-118.2460208808,"(34.2276234255, -118.2460208808)"
84,FA0003025,24 HOUR FITNESS,"FOOD MKT RETAIL (1-1,999 SF) LOW RISK",5300 LANKERSHIM BLVD,NORTH HOLLYWOOD,91601,34.1671484304,-118.3757111626,"(34.1671484304, -118.3757111626)"
85,FA0159730,7-ELEVEN STORE 18341D,"FOOD MKT RETAIL (2,000+ SF) MODERATE RISK",14102 SHERMAN WAY,VAN NUYS,91405,34.2010703465,-118.44013257959999,"(34.2010703465, -118.4401325796)"
86,FA0175631,7-ELEVEN STORE 37021A,"FOOD MKT RETAIL (1-1,999 SF) MODERATE RISK",15228 S AVALON BLVD,COMPTON,90220,33.8936177515,-118.2650550466,"(33.8936177515, -118.2650550466)"
88,FA0003698,7 ELEVEN 25625B,"FOOD MKT RETAIL (2,000+ SF) LOW RISK",10008 E VALLEY BLVD,EL MONTE,91731,34.0785551983,-118.05261977239999,"(34.0785551983, -118.0526197724)"
89,FA0056709,7- ELEVEN STORE #13735,"FOOD MKT RETAIL (1-1,999 SF) LOW RISK",3735 EMERALD ST,TORRANCE,90503,33.841603399499995,-118.3527291649,"(33.8416033995, -118.3527291649)"
90,FA0240802,7-ELEVEN STORE 37301A,"FOOD MKT RETAIL (2,000+ SF) LOW RISK",307 W COMPTON BLVD,COMPTON,90220,33.8959975302,-118.22669050440001,"(33.8959975302, -118.2266905044)"
92,FA0004146,99 CENT OUTLET,"FOOD MKT RETAIL (1-1,999 SF) LOW RISK",437 E EL SEGUNDO BLVD,LOS ANGELES,90061,33.9166517175,-118.26607153879999,"(33.9166517175, -118.2660715388)"
93,FA0003973,7-ELEVEN #17243E,"FOOD MKT RETAIL (1-1,999 SF) MODERATE RISK",15805 PRAIRIE AVE,LAWNDALE,90260,33.8872607048,-118.3439925923,"(33.8872607048, -118.3439925923)"
94,FA0001948,24 HOUR FITNESS # 867,"FOOD MKT RETAIL (1-1,999 SF) LOW RISK",500 N ATLANTIC BLVD # A102-,MONTEREY PARK,91754,34.0682715732,-118.1343266193,"(34.0682715732, -118.1343266193)"
95,FA0003689,7 DAYS LIQUOR,"FOOD MKT RETAIL (1-1,999 SF) LOW RISK",2482 S ATLANTIC BLVD,COMMERCE,90040,34.002146260500005,-118.16877843389999,"(34.0021462605, -118.1687784339)"
96,FA0003801,7-ELEVEN,"FOOD MKT RETAIL (2,000+ SF) LOW RISK",5800 ATLANTIC BLVD,MAYWOOD,90270,33.9878618017,-118.18514141860001,"(33.9878618017, -118.1851414186)"
97,FA0155836,99 CENTS + DISCOUNT STORE,"FOOD MKT RETAIL (2,000+ SF) LOW RISK",1647 N INDIAN HILL BLVD,POMONA,91767,34.075126590100005,-117.7193831866,"(34.0751265901, -117.7193831866)"
98,FA0003994,7-ELEVEN #14029E,"FOOD MKT RETAIL (1-1,999 SF) LOW RISK",15780 E TETLEY ST,HACIENDA HEIGHTS,91745,33.993025093,-117.96946811069999,"(33.993025093, -117.9694681107)"
99,FA0002303,7-ELEVEN STORE #33572C,"FOOD MKT RETAIL (2,000+ SF) MODERATE RISK",3018 W MANCHESTER BLVD,INGLEWOOD,90305,33.9596754031,-118.3260814956,"(33.9596754031, -118.3260814956)"
100,FA0056760,7-ELEVEN #24078D,"FOOD MKT RETAIL (1-1,999 SF) LOW RISK",1699 W CARSON ST,TORRANCE,90501,33.831664274699996,-118.3088301575,"(33.8316642747, -118.3088301575)"
101,FA0002153,7-ELEVEN MARKET,"FOOD MKT RETAIL (1-1,999 SF) MODERATE RISK",1910 COLORADO BLVD,LOS ANGELES,90041,34.139055851799995,-118.20899083629999,"(34.1390558518, -118.2089908363)"
102,FA0267141,7 ELEVEN #38021A,"FOOD MKT RETAIL (2,000+ SF) LOW RISK",12500 ROSCOE BLVD,SUN VALLEY,91352,34.2216315284,-118.4059724955,"(34.2216315284, -118.4059724955)"
103,FA0245524,7-ELEVEN STORE 16480D,"FOOD MKT RETAIL (2,000+ SF) MODERATE RISK",14627 PRAIRIE AVE,LAWNDALE,90260,33.8985,-118.344305,"(33.8985, -118.344305)"
105,FA0267134,7-ELEVEN 38238,"FOOD MKT RETAIL (2,000+ SF) LOW RISK",14101 FRANCISQUITO AVE,BALDWIN PARK,91706,34.0646096342,-117.968696619,"(34.0646096342, -117.968696619)"
106,FA0259424,99 CENT + STORE,"FOOD MKT RETAIL (1-1,999 SF) LOW RISK",21315 SATICOY ST # H,CANOGA PARK,91304,34.2083315232,-118.5959829446,"(34.2083315232, -118.5959829446)"
108,FA0002286,7-ELEVEN,"FOOD MKT RETAIL (2,000+ SF) MODERATE RISK",5495 SEPULVEDA BLVD STE #L,CULVER CITY,90230,33.9931785663,-118.395352558,"(33.9931785663, -118.395352558)"
109,FA0056780,7-ELEVEN,"FOOD MKT RETAIL (1-1,999 SF) LOW RISK",1200 S GARFIELD AVE,ALHAMBRA,91801,34.0804978938,-118.12269704799999,"(34.0804978938, -118.122697048)"
110,FA0001801,1560 PHARMACY,"FOOD MKT RETAIL (1-1,999 SF) LOW RISK",1560 E CHEVY CHASE DR STE #110,GLENDALE,91206,34.1529066954,-118.2302990359,"(34.1529066954, -118.2302990359)"
111,FA0056771,7-ELEVEN #26916B/2174,"FOOD MKT RETAIL (2,000+ SF) LOW RISK",1212 W ANAHEIM ST STE A,HARBOR CITY,90710,33.782211455900004,-118.29799768209999,"(33.7822114559, -118.2979976821)"
112,FA0004184,7-ELEVEN #33959A,"FOOD MKT RETAIL (1-1,999 SF) LOW RISK",19666 VENTURA BLVD,TARZANA,91356,34.1724022927,-118.5618899282,"(34.1724022927, -118.5618899282)"
114,FA0003822,7-ELEVEN #21843 A,"FOOD MKT RETAIL (2,000+ SF) LOW RISK",3545 W ARTESIA BLVD,TORRANCE,90504,33.8730334495,-118.3343691509,"(33.8730334495, -118.3343691509)"
116,FA0177087,7-ELEVEN STORE 34059C,"FOOD MKT RETAIL (2,000+ SF) MODERATE RISK",6586 VAN NUYS BLVD,VAN NUYS,91401,34.1905497221,-118.4484349158,"(34.1905497221, -118.4484349158)"
117,FA0003993,7-ELEVEN #18867-B,"FOOD MKT RETAIL (1-1,999 SF) LOW RISK",5880 W MANCHESTER AVE,LOS ANGELES,90045,33.9597078866,-118.385196182,"(33.9597078866, -118.385196182)"
119,FA0262142,7-ELEVEN STORE 23774E,"FOOD MKT RETAIL (2,000+ SF) LOW RISK",8707 CORBIN AVE,NORTHRIDGE,91324,34.2283915656,-118.5623494344,"(34.2283915656, -118.5623494344)"
120,FA0267844,7-ELEVEN STORE 38041A,"FOOD MKT RETAIL (2,000+ SF) MODERATE RISK",1328 SAN GABRIEL BLVD,ROSEMEAD,91770,34.0445258679,-118.09028263280001,"(34.0445258679, -118.0902826328)"
121,FA0004152,99 CENTS ONLY STORE #037,"FOOD MKT RETAIL (2,000+ SF) LOW RISK",14540 E LEFFINGWELL RD,LA MIRADA,90638,33.9239559261,-118.0215046756,"(33.9239559261, -118.0215046756)"
122,FA0004490,99 CENTS ONLY STORE #28,"FOOD MKT RETAIL (2,000+ SF) LOW RISK",9565 LAS TUNAS DR,TEMPLE CITY,91780,34.106881377600004,-118.061609376,"(34.1068813776, -118.061609376)"
123,FA0003970,7-ELEVEN,"FOOD MKT RETAIL (2,000+ SF) LOW RISK",1916 S SAN PEDRO ST,LOS ANGELES,90011,34.0271490863,-118.2575318472,"(34.0271490863, -118.2575318472)"
124,FA0056804,7-ELEVEN #27558-A,"FOOD MKT RETAIL (2,000+ SF) LOW RISK",8707 LINDLEY AVE,NORTHRIDGE,91325,34.2291343124,-118.527517617,"(34.2291343124, -118.527517617)"
126,FA0002490,99 CENTS ONLY STORE #087,"FOOD MKT RETAIL (1-1,999 SF) LOW RISK",19836 VENTURA BLVD,WOODLAND HILLS,91364,34.1721216398,-118.5653600706,"(34.1721216398, -118.5653600706)"
127,FA0266315,7-ELEVEN STORE 13889B,"FOOD MKT RETAIL (2,000+ SF) LOW RISK",15601 NORDHOFF ST,NORTH HILLS,91343,34.2355844788,-118.4721505511,"(34.2355844788, -118.4721505511)"
130,FA0003825,7-ELEVEN,"FOOD MKT RETAIL (2,000+ SF) LOW RISK",11348 SUNBURST ST,SYLMAR,91342,34.277755074,-118.3785806517,"(34.277755074, -118.3785806517)"
131,FA0004317,99 CENTS ONLY STORE,"FOOD MKT RETAIL (2,000+ SF) LOW RISK",307 N CITRUS AVE,AZUSA,91702,34.0887327672,-117.8904493479,"(34.0887327672, -117.8904493479)"
132,FA0226278,4 DIAMANTES MARKET,"FOOD MKT RETAIL (1-1,999 SF) LOW RISK",4753 S BROADWAY,LOS ANGELES,90037-3253,34.000081373,-118.27837852190001,"(34.000081373, -118.2783785219)"
134,FA0138682,76 STATION,"FOOD MKT RETAIL (2,000+ SF) MODERATE RISK",11025 WASHINGTON BLVD,WHITTIER,90606,33.973106141399995,-118.07472954149999,"(33.9731061414, -118.0747295415)"
135,FA0166765,7-ELEVEN STORE 26747B,"FOOD MKT RETAIL (1-1,999 SF) LOW RISK",6660 W SUNSET BLVD,LOS ANGELES,90028,34.0978133849,-118.3356175325,"(34.0978133849, -118.3356175325)"
136,FA0056878,98 CENT SOTO DISCOUNT,"FOOD MKT RETAIL (1-1,999 SF) LOW RISK",2315 E 4TH ST,LOS ANGELES,90033,34.0410867753,-118.21247746200001,"(34.0410867753, -118.212477462)"
137,FA0004185,7-ELEVEN # 23488-B,"FOOD MKT RETAIL (1-1,999 SF) LOW RISK",20871 LASSEN ST,CHATSWORTH,91311,34.2501294117,-118.588277964,"(34.2501294117, -118.588277964)"
139,FA0172287,99 CENTS ONLY STORE,"FOOD MKT RETAIL (2,000+ SF) LOW RISK",11040 W PICO BLVD,LOS ANGELES,90064,34.0375339651,-118.43352489780001,"(34.0375339651, -118.4335248978)"
140,FA0267842,7 ELEVEN STORE 27161D,"FOOD MKT RETAIL (1-1,999 SF) MODERATE RISK",4417 E ROSECRANS AVE,COMPTON,90221,33.903585489899996,-118.1943039446,"(33.9035854899, -118.1943039446)"
141,FA0175378,7- ELEVEN,"FOOD MKT RETAIL (1-1,999 SF) MODERATE RISK",1463 W 3RD ST,LOS ANGELES,90017,34.0592936313,-118.26368052059999,"(34.0592936313, -118.2636805206)"
142,FA0003538,7-11 #15127-6-2171,"FOOD MKT RETAIL (1-1,999 SF) LOW RISK",2875 E AVENUE R,PALMDALE,93550,34.5728759077,-118.078431404,"(34.5728759077, -118.078431404)"
143,FA0137851,7-ELEVEN #36716A,"FOOD MKT RETAIL (2,000+ SF) LOW RISK",6012 FLORENCE AVE,BELL GARDENS,90201,33.9669501462,-118.1574246567,"(33.9669501462, -118.1574246567)"
144,FA0002332,7-ELEVEN #14003-C,"FOOD MKT RETAIL (2,000+ SF) LOW RISK",2887 E VALLEY BLVD,WEST COVINA,91792,34.0021817863,-117.8816200724,"(34.0021817863, -117.8816200724)"
146,FA0266642,100 PROOF LIQUOR,"FOOD MKT RETAIL (1-1,999 SF) LOW RISK",5601 SOUTH ST,LAKEWOOD,90713,33.8603635299,-118.1232310809,"(33.8603635299, -118.1232310809)"
147,FA0138611,7-ELEVEN STORE #26294B,"FOOD MKT RETAIL (1-1,999 SF) LOW RISK",22225 AVALON BLVD,CARSON,90745-3312,33.8245539643,-118.26401822129999,"(33.8245539643, -118.2640182213)"
148,FA0056718,7 ELEVEN #16678E,"FOOD MKT RETAIL (1-1,999 SF) LOW RISK",922 W DUARTE RD,MONROVIA,91016,34.1312042098,-118.01861678610001,"(34.1312042098, -118.0186167861)"
149,FA0004172,7-ELEVEN,"FOOD MKT RETAIL (2,000+ SF) LOW RISK",4221 BEVERLY BLVD,LOS ANGELES,90004,34.0764507043,-118.3009253376,"(34.0764507043, -118.3009253376)"
150,FA0264297,14221 FIGUEROA,"FOOD MKT RETAIL (1-1,999 SF) MODERATE RISK",14221 S FIGUEROA ST,LOS ANGELES,90061,33.9022252245,-118.2827970914,"(33.9022252245, -118.2827970914)"
151,FA0179668,7-ELEVEN STORE 35006B,"FOOD MKT RETAIL (2,000+ SF) MODERATE RISK",2321 E FLORENCE AVE # 106,HUNTINGTON PARK,90255,33.9747584714,-118.2306789608,"(33.9747584714, -118.2306789608)"
153,FA0248657,7-ELEVEN #37621A,"FOOD MKT RETAIL (2,000+ SF) LOW RISK",951 WESTWOOD BLVD,LOS ANGELES,90024,34.0631240381,-118.4454607427,"(34.0631240381, -118.4454607427)"
155,FA0239859,7-ELEVEN STORE 34498A,"FOOD MKT RETAIL (2,000+ SF) LOW RISK",18203 S WESTERN AVE # 101,TORRANCE,90504,33.8652425922,-118.3091729949,"(33.8652425922, -118.3091729949)"
157,FA0158739,7-ELEVEN,"FOOD MKT RETAIL (1-1,999 SF) MODERATE RISK",2902 FLORENCE AVE,HUNTINGTON PARK,90255,33.973074925300004,-118.2173049282,"(33.9730749253, -118.2173049282)"
158,FA0004171,7-ELEVEN #22705B,"FOOD MKT RETAIL (1-1,999 SF) LOW RISK",226 S PROSPECT AVE,REDONDO BEACH,90277,33.8457298694,-118.3767876683,"(33.8457298694, -118.3767876683)"
159,FA0003349,24 HOUR FITNESS,"FOOD MKT RETAIL (1-1,999 SF) LOW RISK",1357 E GLADSTONE ST,GLENDORA,91741,34.1140660836,-117.8369821512,"(34.1140660836, -117.8369821512)"
160,FA0002295,7-ELEVEN (39629),"FOOD MKT RETAIL (2,000+ SF) LOW RISK",3555 W TEMPLE ST,LOS ANGELES,90004,34.0768702433,-118.2863679216,"(34.0768702433, -118.2863679216)"
161,FA0003989,7-ELEVEN STORE # 20050C,"FOOD MKT RETAIL (2,000+ SF) LOW RISK",3523 W BURBANK BLVD,BURBANK,91505,34.175400139299995,-118.3489938812,"(34.1754001393, -118.3489938812)"
162,FA0004127,97 CENT DISCOUNT STORE,"FOOD MKT RETAIL (1-1,999 SF) LOW RISK",5712 E WHITTIER BLVD,COMMERCE,90022,34.0183044358,-118.1478857786,"(34.0183044358, -118.1478857786)"
163,FA0056902,99 CENTS ONLY STORE #044,"FOOD MKT RETAIL (2,000+ SF) LOW RISK",2566 E FLORENCE AVE,HUNTINGTON PARK,90255,33.9740577271,-118.2258296134,"(33.9740577271, -118.2258296134)"
164,FA0250646,7-ELEVEN STORE 24483C,"FOOD MKT RETAIL (2,000+ SF) LOW RISK",703 E PALMDALE BLVD,PALMDALE,93550,34.5795445299,-118.1162244446,"(34.5795445299, -118.1162244446)"
165,FA0004198,7-ELEVEN STORE 39152 A,"FOOD MKT RETAIL (2,000+ SF) LOW RISK",2377 W PICO BLVD # A,LOS ANGELES,90006,34.047317607800004,-118.2887493472,"(34.0473176078, -118.2887493472)"
166,FA0004214,82 MARKET,"FOOD MKT RETAIL (1-1,999 SF) LOW RISK",5204 MELROSE AVE,LOS ANGELES,90038,34.083371637199996,-118.313792406,"(34.0833716372, -118.313792406)"
167,FA0159332,24 HOUR FITNESS #163,"FOOD MKT RETAIL (1-1,999 SF) LOW RISK",1500 ROSECRANS AVE,MANHATTAN BEACH,90266-3763,33.9014402312,-118.3875067139,"(33.9014402312, -118.3875067139)"
168,FA0259961,7-ELEVEN,"FOOD MKT RETAIL (2,000+ SF) LOW RISK",10000 S VERMONT AVE,LOS ANGELES,90044,33.9451105284,-118.2915678432,"(33.9451105284, -118.2915678432)"
169,FA0002598,99 CENTS ONLY STORE #111,"FOOD MKT RETAIL (2,000+ SF) LOW RISK",2407 W VICTORY BLVD,BURBANK,91506,34.1851482526,-118.337958879,"(34.1851482526, -118.337958879)"
170,FA0003962,7-ELEVEN,"FOOD MKT RETAIL (2,000+ SF) LOW RISK",5498 1/2 W CENTINELA AVE,LOS ANGELES,90045,33.9768927479,-118.3765631908,"(33.9768927479, -118.3765631908)"
172,FA0004150,99 CENTS ONLY STORE #3114,"FOOD MKT RETAIL (2,000+ SF) LOW RISK",12741 W WASHINGTON BLVD,LOS ANGELES,90066,33.996601667600004,-118.43605566020001,"(33.9966016676, -118.4360556602)"
173,FA0003812,7-ELEVEN #33149B,"FOOD MKT RETAIL (2,000+ SF) MODERATE RISK",13019 IMPERIAL HWY,WHITTIER,90605,33.917373898899996,-118.0549555516,"(33.9173738989, -118.0549555516)"
174,FA0003963,7-ELEVEN #18463-C,"FOOD MKT RETAIL (1-1,999 SF) LOW RISK",904 N VINE ST,LOS ANGELES,90038,34.0872991294,-118.3264203036,"(34.0872991294, -118.3264203036)"
175,FA0056624,30TH STREET MARKET,"FOOD MKT RETAIL (1-1,999 SF) LOW RISK",2924 MAPLE AVE,LOS ANGELES,90011,34.020353913600005,-118.2672173417,"(34.0203539136, -118.2672173417)"
177,FA0004515,99 CENTS ONLY STORE #0070,"FOOD MKT RETAIL (1-1,999 SF) LOW RISK",44601 VALLEY CENTRAL WAY,LANCASTER,93534,34.6930531568,-118.17191211709999,"(34.6930531568, -118.1719121171)"
178,FA0002308,7-ELEVEN #35283,"FOOD MKT RETAIL (2,000+ SF) LOW RISK",8661 SEPULVEDA BLVD,NORTH HILLS,91343,34.227958710799996,-118.4678627598,"(34.2279587108, -118.4678627598)"
179,FA0003854,7-ELEVEN STORE #19133E,"FOOD MKT RETAIL (1-1,999 SF) LOW RISK",1611 W OLIVE AVE,BURBANK,91506,34.1677146743,-118.3229476008,"(34.1677146743, -118.3229476008)"
180,FA0002478,98TH DISCOUNT MARKET,"FOOD MKT RETAIL (1-1,999 SF) LOW RISK",9814 S FIGUEROA ST,LOS ANGELES,90003,33.946826322,-118.2824344531,"(33.946826322, -118.2824344531)"
182,FA0177187,1 STOP SHOP RIGHT,"FOOD MKT RETAIL (1-1,999 SF) LOW RISK",1110 S LONG BEACH BLVD STE 2,COMPTON,90221,33.8867490346,-118.2062811408,"(33.8867490346, -118.2062811408)"
183,FA0002319,7-ELEVEN #13731-B,"FOOD MKT RETAIL (2,000+ SF) LOW RISK",3450 OVERLAND AVE,LOS ANGELES,90034,34.0251252563,-118.41167749040001,"(34.0251252563, -118.4116774904)"
184,FA0171344,99 CENT ONLY STORE,"FOOD MKT RETAIL (2,000+ SF) LOW RISK",15727 DOWNEY AVE,PARAMOUNT,90723,33.890392285,-118.15170709620001,"(33.890392285, -118.1517070962)"
185,FA0167127,10TH ST. USA GAS,"FOOD MKT RETAIL (1-1,999 SF) LOW RISK",38821 10TH ST W,PALMDALE,93551-3701,34.5878824298,-118.1477743269,"(34.5878824298, -118.1477743269)"
186,FA0022275,21 GROCERY,"FOOD MKT RETAIL (1-1,999 SF) LOW RISK",10905 E GARVEY AVE,SOUTH EL MONTE,91733,34.0631115285,-118.03794718040001,"(34.0631115285, -118.0379471804)"
187,FA0056835,7-ELEVEN FOOD STORE # 25819,"FOOD MKT RETAIL (1-1,999 SF) LOW RISK",20207 ANZA AVE,TORRANCE,90503,33.848771094,-118.3628284406,"(33.848771094, -118.3628284406)"
188,FA0180589,7 ELEVEN STORE #35999B,"FOOD MKT RETAIL (1-1,999 SF) LOW RISK",11140 DEL AMO BLVD,LAKEWOOD,90715,33.8455941515,-118.095981153,"(33.8455941515, -118.095981153)"
189,FA0056765,7-ELEVEN STREET# 18949,"FOOD MKT RETAIL (2,000+ SF) MODERATE RISK",14060 OXNARD ST,VAN NUYS,91401,34.179245996700004,-118.439452288,"(34.1792459967, -118.439452288)"
190,FA0269194,99 CENTS BUENA VISTA,"FOOD MKT RETAIL (1-1,999 SF) LOW RISK",1931 W 6TH ST,LOS ANGELES,90057,34.0588425062,-118.27315144090001,"(34.0588425062, -118.2731514409)"
191,FA0002284,7-ELEVEN # 2175-20101-C,"FOOD MKT RETAIL (2,000+ SF) LOW RISK",808 N INDIAN HILL BLVD,POMONA,91767,34.0670665226,-117.7190324738,"(34.0670665226, -117.7190324738)"
192,FA0002155,7-11 STORE #26945 C,"FOOD MKT RETAIL (2,000+ SF) LOW RISK",27680 LAKE HUGHES RD,CASTAIC,91384,34.4965288771,-118.6219611123,"(34.4965288771, -118.6219611123)"
195,FA0270037,7 ELEVEN STORE 39257B,"FOOD MKT RETAIL (2,000+ SF) LOW RISK",2251 W ROSECRANS AVE # 1,COMPTON,90222,33.9027249046,-118.2566732831,"(33.9027249046, -118.2566732831)"
196,FA0166882,7-ELEVEN #16933A,"FOOD MKT RETAIL (2,000+ SF) LOW RISK",4323 E LIVE AK AVE,ARCADIA,91006,34.110729596599995,-118.00879799379999,"(34.1107295966, -118.0087979938)"
198,FA0203926,7-11,"FOOD MKT RETAIL (2,000+ SF) LOW RISK",100 N GRAND AVE # A,WEST COVINA,91791,34.0734313911,-117.8723659216,"(34.0734313911, -117.8723659216)"
200,FA0003694,7 ELEVEN #2175 16020,"FOOD MKT RETAIL (2,000+ SF) LOW RISK",3243 SANTA ANITA AVE,SOUTH EL MONTE,91733,34.067304049200004,-118.042774805,"(34.0673040492, -118.042774805)"
201,FA0137707,100% NUTRICION,"FOOD MKT RETAIL (1-1,999 SF) LOW RISK",1007 W GARDENA BLVD,GARDENA,90247,33.8818561186,-118.2917186297,"(33.8818561186, -118.2917186297)"
202,FA0226285,51ST MARKET,"FOOD MKT RETAIL (2,000+ SF) HIGH RISK",5026 S AVALON BLVD,LOS ANGELES,90011-4005,33.9968010454,-118.26519624219999,"(33.9968010454, -118.2651962422)"
203,FA0056821,7-ELEVEN #18911-B,"FOOD MKT RETAIL (1-1,999 SF) LOW RISK",16159 DEVONSHIRE ST,GRANADA HILLS,91344,34.2575703807,-118.4843832108,"(34.2575703807, -118.4843832108)"
204,FA0004158,99 CENTS ONLY STORE #058,"FOOD MKT RETAIL (2,000+ SF) LOW RISK",4929 N WOODRUFF AVE,LAKEWOOD,90713,33.8474824989,-118.11701540540001,"(33.8474824989, -118.1170154054)"
205,FA0003984,7-ELEVEN #20958,"FOOD MKT RETAIL (2,000+ SF) LOW RISK",6766 TAMPA AVE,RESEDA,91335,34.193582506700004,-118.5532596654,"(34.1935825067, -118.5532596654)"
207,FA0159629,7-ELEVEN STORE 39525B,"FOOD MKT RETAIL (1-1,999 SF) LOW RISK",6810 E SLAUSON AVE,COMMERCE,90040,33.981866349,-118.14139963299999,"(33.981866349, -118.141399633)"
210,FA0173714,7-ELEVEN 17184,"FOOD MKT RETAIL (2,000+ SF) LOW RISK",10437 WHITTIER BLVD,WHITTIER,90606,33.9921978944,-118.06697674870001,"(33.9921978944, -118.0669767487)"
211,FA0202755,7-ELEVEN #16040D,"FOOD MKT RETAIL (1-1,999 SF) LOW RISK",11001 WASHINGTON BLVD,CULVER CITY,90232,34.01141198,-118.4106624141,"(34.01141198, -118.4106624141)"
212,FA0002149,7-11 #18020 E-2171,"FOOD MKT RETAIL (2,000+ SF) LOW RISK",304 E AVENUE I,LANCASTER,93535,34.703661394899996,-118.1257010614,"(34.7036613949, -118.1257010614)"
213,FA0003855,7-ELEVEN,"FOOD MKT RETAIL (2,000+ SF) LOW RISK",10711 GLENOAKS BLVD,PACOIMA,91331,34.2640498615,-118.4015561449,"(34.2640498615, -118.4015561449)"
214,FA0004201,7-ELEVEN STORE # 39014B,"FOOD MKT RETAIL (2,000+ SF) LOW RISK",18845 SHERMAN WAY STE # A,RESEDA,91335,34.2011983629,-118.5443392376,"(34.2011983629, -118.5443392376)"
216,FA0179304,7-ELEVEN STORE #22055E,"FOOD MKT RETAIL (1-1,999 SF) LOW RISK",5575 N AZUSA AVE,AZUSA,91702,34.1140180532,-117.90775094719999,"(34.1140180532, -117.9077509472)"
217,FA0003699,7 ELEVEN,"FOOD MKT RETAIL (2,000+ SF) LOW RISK",6000 LAUREL CANYON BLVD,NORTH HOLLYWOOD,91606,34.1797455444,-118.3963074457,"(34.1797455444, -118.3963074457)"
218,FA0002177,7-ELEVEN #19709D,"FOOD MKT RETAIL (1-1,999 SF) LOW RISK",265 W OLIVE AVE,BURBANK,91502,34.174338753200004,-118.3158443754,"(34.1743387532, -118.3158443754)"
220,FA0255800,24 HOUR FITNESS,"FOOD MKT RETAIL (1-1,999 SF) LOW RISK",10400 SEPULVEDA BLVD,MISSION HILLS,91345,34.2587636259,-118.4672892176,"(34.2587636259, -118.4672892176)"
221,FA0179268,7 - ELEVEN,"FOOD MKT RETAIL (2,000+ SF) MODERATE RISK",610 S RAMPART BLVD # 3,LOS ANGELES,90057,34.0620138224,-118.2815731566,"(34.0620138224, -118.2815731566)"
222,FA0003351,24 HOUR FITNESS #118,"FOOD MKT RETAIL (1-1,999 SF) LOW RISK",3699 WILSHIRE BLVD STE #110,LOS ANGELES,90010,34.0617480808,-118.30621953229999,"(34.0617480808, -118.3062195323)"
223,FA0002312,7-ELEVEN #24198-A,"FOOD MKT RETAIL (2,000+ SF) LOW RISK",18519 VICTORY BLVD,RESEDA,91335,34.1867584988,-118.53663172270001,"(34.1867584988, -118.5366317227)"
224,FA0004489,99 CENTS ONLY STORE #135,"FOOD MKT RETAIL (2,000+ SF) LOW RISK",650 S ALVARADO ST,LOS ANGELES,90057,34.0577240459,-118.2758272368,"(34.0577240459, -118.2758272368)"
225,FA0032617,7-ELEVEN,"FOOD MKT RETAIL (2,000+ SF) LOW RISK",6780 VINELAND AVE,NORTH HOLLYWOOD,91606,34.1936077362,-118.3701156681,"(34.1936077362, -118.3701156681)"
226,FA0003826,7-ELEVEN #39364,"FOOD MKT RETAIL (1-1,999 SF) LOW RISK",10690 LAUREL CANYON BLVD # J,PACOIMA,91331,34.2644821822,-118.4380891834,"(34.2644821822, -118.4380891834)"
229,FA0056756,7-ELEVEN,"FOOD MKT RETAIL (2,000+ SF) MODERATE RISK",15105 LAKEWOOD BLVD,PARAMOUNT,90723,33.89620235,-118.1431283118,"(33.89620235, -118.1431283118)"
231,FA0004159,99 CENTS ONLY STORE #016,"FOOD MKT RETAIL (2,000+ SF) LOW RISK",601 S FAIRFAX AVE,LOS ANGELES,90048,34.0647116478,-118.36154023969999,"(34.0647116478, -118.3615402397)"
232,FA0003850,7-ELEVEN #19356-E,"FOOD MKT RETAIL (2,000+ SF) LOW RISK",17262 VANOWEN ST,VAN NUYS,91406,34.1937227029,-118.5094683464,"(34.1937227029, -118.5094683464)"
233,FA0003995,7-ELEVEN FOOD STORE,"FOOD MKT RETAIL (1-1,999 SF) LOW RISK",8960 WOODMAN AVE,PACOIMA,91331,34.2326759469,-118.43818908780001,"(34.2326759469, -118.4381890878)"
234,FA0256515,7-ELEVEN STORE 39833A,"FOOD MKT RETAIL (2,000+ SF) LOW RISK",3672 W 3RD ST,LOS ANGELES,90020,34.068960667,-118.29621001299999,"(34.068960667, -118.296210013)"
236,FA0003527,7-ELEVEN,"FOOD MKT RETAIL (1-1,999 SF) LOW RISK",7858 VAN NUYS BLVD,PANORAMA CITY,91402,34.2137631146,-118.44850934639999,"(34.2137631146, -118.4485093464)"
237,FA0259950,7-ELEVEN STORE 18532E,"FOOD MKT RETAIL (2,000+ SF) LOW RISK",2900 HYPERION AVE,LOS ANGELES,90027,34.1095163583,-118.2710700644,"(34.1095163583, -118.2710700644)"
238,FA0003690,7 ELEVEN STORE,"FOOD MKT RETAIL (1-1,999 SF) LOW RISK",19660 VANOWEN ST,RESEDA,91335,34.1936357375,-118.5618736225,"(34.1936357375, -118.5618736225)"
239,FA0056544,168 MARKET #803,"FOOD MKT RETAIL (2,000+ SF) LOW RISK",933 E LAS TUNAS DR,SAN GABRIEL,91776,34.103561713699996,-118.087554668,"(34.1035617137, -118.087554668)"
240,FA0056750,7-ELEVEN STORE #18690-C,"FOOD MKT RETAIL (2,000+ SF) MODERATE RISK",16711 S VERMONT AVE,GARDENA,90247,33.8793286252,-118.29163792930001,"(33.8793286252, -118.2916379293)"
241,FA0180119,99 CENTS & THRIFT STORE,"FOOD MKT RETAIL (1-1,999 SF) LOW RISK",417 W EL SEGUNDO BLVD # 2,LOS ANGELES,90061,33.916447984899996,-118.2818796914,"(33.9164479849, -118.2818796914)"
242,FA0268896,7-ELEVEN STORE 19201D,"FOOD MKT RETAIL (1-1,999 SF) LOW RISK",2005 LOMITA BLVD,LOMITA,90717,33.8002798646,-118.3149927677,"(33.8002798646, -118.3149927677)"
243,FA0264260,7-ELEVEN STORE 37063A,"FOOD MKT RETAIL (2,000+ SF) MODERATE RISK",9701 VALLEY BLVD,ROSEMEAD,91770,34.0812698921,-118.057945265,"(34.0812698921, -118.057945265)"
244,FA0003669,54TH VAN NESS LIQUOR MARKET,"FOOD MKT RETAIL (2,000+ SF) LOW RISK",2201 W 54TH ST,LOS ANGELES,90043,33.9933533135,-118.3172451558,"(33.9933533135, -118.3172451558)"
246,FA0179655,99 CENT DISCOUNT,"FOOD MKT RETAIL (1-1,999 SF) LOW RISK",3129 N GAREY AVE,POMONA,91767,34.1042772533,-117.7486224277,"(34.1042772533, -117.7486224277)"
247,FA0002323,7-ELEVEN #17635-E,"FOOD MKT RETAIL (2,000+ SF) LOW RISK",1647 SILVER LAKE BLVD,LOS ANGELES,90026,34.0892673017,-118.26881002020001,"(34.0892673017, -118.2688100202)"
248,FA0003347,24 HOUR FITNESS CLUB #113,"FOOD MKT RETAIL (1-1,999 SF) LOW RISK",240 N BRAND BLVD,GLENDALE,91203,34.1496951587,-118.2545639843,"(34.1496951587, -118.2545639843)"
249,FA0056839,7-ELVEN #24131 B,"FOOD MKT RETAIL (2,000+ SF) LOW RISK",7609 SANTA MONICA BLVD,WEST HOLLYWOOD,90046,34.0909349669,-118.3553465377,"(34.0909349669, -118.3553465377)"
250,FA0004012,7-ELEVEN,"FOOD MKT RETAIL (1-1,999 SF) LOW RISK",500 W 7TH ST,LOS ANGELES,90014,34.0465087134,-118.25581855739999,"(34.0465087134, -118.2558185574)"
252,FA0056605,24 HOUR FITNESS CLUB #170,"FOOD MKT RETAIL (1-1,999 SF) LOW RISK",715 E HUNTINGTON DR,MONROVIA,91016,34.1416267739,-117.99028724889999,"(34.1416267739, -117.9902872489)"
253,FA0138435,7-ELEVEN STORE #34735A,"FOOD MKT RETAIL (1-1,999 SF) MODERATE RISK",4436 SEPULVEDA BLVD,CULVER CITY,90230,34.0029684668,-118.4063723598,"(34.0029684668, -118.4063723598)"
254,FA0056833,7-ELEVEN # 179736,"FOOD MKT RETAIL (2,000+ SF) LOW RISK",8001 S GREENLEAF AVE,WHITTIER,90601,33.9679061595,-118.0377549403,"(33.9679061595, -118.0377549403)"
255,FA0003021,24 HOUR FITNESS,"FOOD MKT RETAIL (1-1,999 SF) LOW RISK",1530 W WEST COVINA PKWY,WEST COVINA,91790,34.069661290999996,-117.9404027193,"(34.069661291, -117.9404027193)"
256,FA0159920,7 24 MINI MARKET,"FOOD MKT RETAIL (1-1,999 SF) LOW RISK",13517 AVALON BLVD,LOS ANGELES,90061,33.908621319299996,-118.26560094450001,"(33.9086213193, -118.2656009445)"
257,FA0002314,7-ELEVEN #138786G,"FOOD MKT RETAIL (2,000+ SF) LOW RISK",27222 WHITES CANYON RD,CANYON COUNTRY,91351,34.4164325079,-118.47169972639999,"(34.4164325079, -118.4716997264)"
259,FA0002139,7 ELEVEN #25051,"FOOD MKT RETAIL (2,000+ SF) LOW RISK",12170 RAMONA BLVD,EL MONTE,91732,34.075573091100004,-118.008122468,"(34.0755730911, -118.008122468)"
260,FA0056882,98 ST OK MARKET,"FOOD MKT RETAIL (1-1,999 SF) LOW RISK",9727 S FIGUEROA ST,LOS ANGELES,90003,33.947532023899996,-118.2829368021,"(33.9475320239, -118.2829368021)"
261,FA0003968,7-ELEVEN #23577C,"FOOD MKT RETAIL (2,000+ SF) LOW RISK",1101 S GLENDALE AVE,GLENDALE,91205,34.1611192413,-118.2373267789,"(34.1611192413, -118.2373267789)"
262,FA0056802,7-ELEVEN #26165,"FOOD MKT RETAIL (2,000+ SF) LOW RISK",5583 RESEDA BLVD,TARZANA,91356,34.1719374587,-118.536163896,"(34.1719374587, -118.536163896)"
263,FA0267257,7- ELEVEN STORE 26660C,"FOOD MKT RETAIL (2,000+ SF) LOW RISK",16450 VANOWEN ST,VAN NUYS,91406,34.1938794885,-118.4920429716,"(34.1938794885, -118.4920429716)"
264,FA0167809,168 MARKET #806,"FOOD MKT RETAIL (1-1,999 SF) HIGH RISK",17120 COLIMA RD,HACIENDA HEIGHTS,91745,33.9898366072,-117.93415934629999,"(33.9898366072, -117.9341593463)"
266,FA0165409,7- ELEVEN #34754A,"FOOD MKT RETAIL (2,000+ SF) LOW RISK",4299 S CRENSHAW BLVD,LOS ANGELES,90008,34.005450939,-118.334058166,"(34.005450939, -118.334058166)"
268,FA0003511,6TH & CATALINA CHEVRON,"FOOD MKT RETAIL (2,000+ SF) LOW RISK",3325 W 6TH ST,LOS ANGELES,90005,34.0637391358,-118.2947704058,"(34.0637391358, -118.2947704058)"
269,FA0056799,7-ELEVEN #17565C,"FOOD MKT RETAIL (2,000+ SF) LOW RISK",1003 S BALDWIN AVE,ARCADIA,91007,34.1287013082,-118.0551119275,"(34.1287013082, -118.0551119275)"
271,FA0002585,99 CENTS ONLY STORE #048,"FOOD MKT RETAIL (2,000+ SF) LOW RISK",955 W SEPULVEDA BLVD,TORRANCE,90502,33.8110606758,-118.2918162116,"(33.8110606758, -118.2918162116)"
272,FA0003688,7 DAYS LIQUOR,"FOOD MKT RETAIL (2,000+ SF) LOW RISK",1700 S VICTORY BLVD,GLENDALE,91201,34.161218996,-118.30079811799999,"(34.161218996, -118.300798118)"
273,FA0241145,168 MARKET #801,"FOOD MKT RETAIL (2,000+ SF) LOW RISK",1421 E VALLEY BLVD,ALHAMBRA,91801-5239,34.0792774674,-118.1098966717,"(34.0792774674, -118.1098966717)"
274,FA0004166,7-ELEVEN,"FOOD MKT RETAIL (2,000+ SF) LOW RISK",1451 S LA CIENEGA BLVD,LOS ANGELES,90035,34.0517481941,-118.3763343068,"(34.0517481941, -118.3763343068)"
275,FA0003186,24 HOUR FITNESS,"FOOD MKT RETAIL (1-1,999 SF) LOW RISK",13395 E BEACH BLVD,LA MIRADA,90638,33.9105259965,-117.9773034232,"(33.9105259965, -117.9773034232)"
276,FA0003813,7-ELEVEN #24142D,"FOOD MKT RETAIL (2,000+ SF) LOW RISK",345 W MANCHESTER BLVD,INGLEWOOD,90301,33.9619857176,-118.36144967879999,"(33.9619857176, -118.3614496788)"
277,FA0056910,99 CENTS ONLY STORE #230,"FOOD MKT RETAIL (2,000+ SF) LOW RISK",10911 VICTORY BLVD,NORTH HOLLYWOOD,91601,34.1868677182,-118.3686152193,"(34.1868677182, -118.3686152193)"
278,FA0004165,7-ELEVEN #14025C,"FOOD MKT RETAIL (2,000+ SF) LOW RISK",9028 E GALLATIN RD,PICO RIVERA,90660,34.0167667535,-118.0784286833,"(34.0167667535, -118.0784286833)"
279,FA0165262,7-ELEVEN STORE 16848C,"FOOD MKT RETAIL (1-1,999 SF) MODERATE RISK",4800 120TH ST,HAWTHORNE,90250,33.9235414834,-118.36142632709999,"(33.9235414834, -118.3614263271)"
280,FA0263233,7 ELEVEN #38076A,"FOOD MKT RETAIL (2,000+ SF) LOW RISK",11844 FOOTHILL BLVD,SYLMAR,91342,34.2737523416,-118.39423616559999,"(34.2737523416, -118.3942361656)"
281,FA0056795,7-ELEVEN #26188,"FOOD MKT RETAIL (1-1,999 SF) LOW RISK",1874 S WESTERN AVE,LOS ANGELES,90006,34.040369979299996,-118.3088043237,"(34.0403699793, -118.3088043237)"
282,FA0138054,7-ELEVEN STORE #34753B,"FOOD MKT RETAIL (1-1,999 SF) LOW RISK",10656 ROSECRANS AVE #A,NORWALK,90650-3463,33.9019837118,-118.10622909790001,"(33.9019837118, -118.1062290979)"
283,FA0004013,7-ELEVEN #33543,"FOOD MKT RETAIL (2,000+ SF) LOW RISK",11767 CARSON ST,LAKEWOOD,90715,33.8318277368,-118.08209046700001,"(33.8318277368, -118.082090467)"
285,FA0002491,99 CENTS ONLY STORE #059,"FOOD MKT RETAIL (2,000+ SF) LOW RISK",3451 E WHITTIER BLVD,LOS ANGELES,90023,34.0271774681,-118.1992487834,"(34.0271774681, -118.1992487834)"
288,FA0240672,7-ELEVEN STORE 39700A,"FOOD MKT RETAIL (1-1,999 SF) LOW RISK",28529 SAND CANYON RD,CANYON COUNTRY,91387-2151,34.426550811300004,-118.4237321391,"(34.4265508113, -118.4237321391)"
290,FA0056806,7-ELEVEN,"FOOD MKT RETAIL (1-1,999 SF) MODERATE RISK",4343 W SLAUSON AVE,LOS ANGELES,90043,33.9893597369,-118.35142736600001,"(33.9893597369, -118.351427366)"
291,FA0177141,54TH ST MARKET,"FOOD MKT RETAIL (1-1,999 SF) LOW RISK",2731 W 54TH ST,LOS ANGELES,90043,33.9933229405,-118.3234301728,"(33.9933229405, -118.3234301728)"
292,FA0159143,7-ELEVEN,"FOOD MKT RETAIL (1-1,999 SF) LOW RISK",15317 VANOWEN ST,VAN NUYS,91406,34.1941001777,-118.4669176159,"(34.1941001777, -118.4669176159)"
293,FA0003858,7-ELEVEN #27005-A,"FOOD MKT RETAIL (2,000+ SF) LOW RISK",11853 DOWNEY AVE,DOWNEY,90241,33.9324657392,-118.1388037367,"(33.9324657392, -118.1388037367)"
294,FA0003020,24 HOUR FITNESS,"FOOD MKT RETAIL (1-1,999 SF) LOW RISK",1220 W AVENUE K,LANCASTER,93534,34.6733836683,-118.1529657441,"(34.6733836683, -118.1529657441)"
295,FA0003840,7-ELEVEN STORE 340558,"FOOD MKT RETAIL (1-1,999 SF) LOW RISK",28088 BOUQUET CANYON RD,SANTA CLARITA,91350,34.4511472754,-118.4972466041,"(34.4511472754, -118.4972466041)"
297,FA0056831,7-ELEVEN,"FOOD MKT RETAIL (1-1,999 SF) LOW RISK",1001 FOOTHILL BLVD,LA CANADA FLINTRIDGE,91011,34.204858759699995,-118.20045632909999,"(34.2048587597, -118.2004563291)"
298,FA0004142,99 CENTS ONLY STORE #033,"FOOD MKT RETAIL (1-1,999 SF) LOW RISK",6122 PACIFIC BLVD,HUNTINGTON PARK,90255,33.9847357746,-118.2250197617,"(33.9847357746, -118.2250197617)"
299,FA0004512,99 CENTS ONLY STORE,"FOOD MKT RETAIL (2,000+ SF) LOW RISK",2801 PICO BLVD,SANTA MONICA,90405,34.0246065803,-118.4605315128,"(34.0246065803, -118.4605315128)"
300,FA0261931,7-ELEVEN STORE 37754A,"FOOD MKT RETAIL (2,000+ SF) LOW RISK",1717 S SOTO ST,LOS ANGELES,90023,34.0175979956,-118.2201070947,"(34.0175979956, -118.2201070947)"
303,FA0056708,7- ELEVEN,"FOOD MKT RETAIL (2,000+ SF) MODERATE RISK",10965 FIRESTONE BLVD,NORWALK,90650,33.922713723200005,-118.09963164969999,"(33.9227137232, -118.0996316497)"
304,FA0002136,7 ELEVEN #2135-17518,"FOOD MKT RETAIL (2,000+ SF) LOW RISK",803 E MISSION BLVD,POMONA,91766,34.0556351949,-117.7409364639,"(34.0556351949, -117.7409364639)"
305,FA0137098,99 CENT AND MARKET MATAMORO,"FOOD MKT RETAIL (1-1,999 SF) LOW RISK",5859 S COMPTON AVE,LOS ANGELES,90001,33.9882921833,-118.2479531739,"(33.9882921833, -118.2479531739)"
306,FA0003712,7-ELEVEN,"FOOD MKT RETAIL (2,000+ SF) LOW RISK",1535 AVIATION BLVD,REDONDO BEACH,90278,33.8689972513,-118.3829425946,"(33.8689972513, -118.3829425946)"
307,FA0001538,100% MEXICANA,"FOOD MKT RETAIL (1-1,999 SF) LOW RISK",3225 S CENTRAL AVE,LOS ANGELES,90011,34.0140707186,-118.2566772765,"(34.0140707186, -118.2566772765)"
309,FA0032616,7-ELEVEN 39022A,"FOOD MKT RETAIL (2,000+ SF) MODERATE RISK",1865 LINCOLN BLVD STE #1,SANTA MONICA,90401,34.012630938200004,-118.48328046510001,"(34.0126309382, -118.4832804651)"
312,FA0175829,7-ELEVEN #35768A,"FOOD MKT RETAIL (2,000+ SF) LOW RISK",12411 SHELDON ST,SUN VALLEY,91352,34.2324907958,-118.40329644559999,"(34.2324907958, -118.4032964456)"
313,FA0160526,7-ELEVEN,"FOOD MKT RETAIL (2,000+ SF) LOW RISK",8254 WHITE OAK AVE,NORTHRIDGE,91325,34.2207264699,-118.5184113543,"(34.2207264699, -118.5184113543)"
316,FA0056767,7-ELEVEN #13751A,"FOOD MKT RETAIL (1-1,999 SF) MODERATE RISK",6419 E DEL AMO BLVD,LAKEWOOD,90713,33.8472539391,-118.10687043709999,"(33.8472539391, -118.1068704371)"
318,FA0221914,7-ELEVEN  STORE 39764A,"FOOD MKT RETAIL (2,000+ SF) LOW RISK",102 E HUNTINGTON DR,ARCADIA,91006,34.1400626229,-118.0279693362,"(34.1400626229, -118.0279693362)"
319,FA0270544,7-ELEVEN STORE 19329E,"FOOD MKT RETAIL (1-1,999 SF) LOW RISK",3705 PUENTE AVE,BALDWIN PARK,91706,34.0795384982,-117.95214324770001,"(34.0795384982, -117.9521432477)"
320,FA0267028,7-ELEVEN STORE #17169B,"FOOD MKT RETAIL (1-1,999 SF) LOW RISK",281 E POMONA BLVD,MONTEREY PARK,91755-7237,34.0336194605,-118.1252916932,"(34.0336194605, -118.1252916932)"
321,FA0003829,7-ELEVEN #13886C,"FOOD MKT RETAIL (2,000+ SF) LOW RISK",26815 SECO CANYON RD,SANTA CLARITA,91350,34.4338764763,-118.5319722706,"(34.4338764763, -118.5319722706)"
322,FA0056716,7 ELEVEN 2133-32829,"FOOD MKT RETAIL (1-1,999 SF) LOW RISK",23701 VANOWEN ST,WEST HILLS,91307,34.1933951086,-118.6426078029,"(34.1933951086, -118.6426078029)"
323,FA0003947,777 MARKET,"FOOD MKT RETAIL (1-1,999 SF) LOW RISK",1900 S LA BREA AVE # 1,LOS ANGELES,90016,34.040077312600005,-118.3476402697,"(34.0400773126, -118.3476402697)"
325,FA0003352,24 HOUR FITNESS- MY STORE,"FOOD MKT RETAIL (1-1,999 SF) LOW RISK",6380 W SUNSET BLVD,LOS ANGELES,90028,34.0977494176,-118.3284326533,"(34.0977494176, -118.3284326533)"
328,FA0166428,7-ELEVEN STORE 36961A,"FOOD MKT RETAIL (2,000+ SF) LOW RISK",301 E FLORENCE AVE,LOS ANGELES,90003,33.9748831933,-118.26899525459999,"(33.9748831933, -118.2689952546)"
331,FA0002584,99 CENTS ONLY STORE #042,"FOOD MKT RETAIL (2,000+ SF) LOW RISK",8625 WOODMAN AVE,PANORAMA CITY,91402,34.227026594899996,-118.4337631232,"(34.2270265949, -118.4337631232)"
332,FA0002296,7-ELEVEN #18819-C,"FOOD MKT RETAIL (2,000+ SF) LOW RISK",10660 SEPULVEDA BLVD,MISSION HILLS,91345,34.2643053338,-118.46697458700001,"(34.2643053338, -118.466974587)"
334,FA0004136,98 DISCOUNT STORE,"FOOD MKT RETAIL (1-1,999 SF) LOW RISK",7344 VAN NUYS BLVD #3,VAN NUYS,91405,34.2041401703,-118.4487165197,"(34.2041401703, -118.4487165197)"
335,FA0170103,7-ELEVEN #37042A,"FOOD MKT RETAIL (2,000+ SF) LOW RISK",11255 S NORMANDIE AVE,LOS ANGELES,90044,33.9312088369,-118.3004966451,"(33.9312088369, -118.3004966451)"
336,FA0002274,7-ELEVEN #19667,"FOOD MKT RETAIL (1-1,999 SF) LOW RISK",6701 SANTA MONICA BLVD,LOS ANGELES,90038,34.0908858715,-118.3364204918,"(34.0908858715, -118.3364204918)"
337,FA0003523,7 ELEVEN,"FOOD MKT RETAIL (1-1,999 SF) LOW RISK",11351 MOORPARK ST,STUDIO CITY,91604,34.150522737399996,-118.3785381898,"(34.1505227374, -118.3785381898)"
339,FA0166103,7-ELEVEN,"FOOD MKT RETAIL (2,000+ SF) MODERATE RISK",9403 ARTESIA BLVD,BELLFLOWER,90706,33.8751040369,-118.1335343175,"(33.8751040369, -118.1335343175)"
340,FA0171630,168 MARKET #805,"FOOD MKT RETAIL (1-1,999 SF) HIGH RISK",19725 COLIMA RD,ROWLAND HEIGHTS,91748,33.9864770007,-117.8725912706,"(33.9864770007, -117.8725912706)"
341,FA0004003,7-ELEVEN STORE #13836D,"FOOD MKT RETAIL (1-1,999 SF) LOW RISK",8807 MISSION DR,ROSEMEAD,91770,34.086049551,-118.07739492209998,"(34.086049551, -118.0773949221)"
342,FA0258458,99 CENTS + STORE,"FOOD MKT RETAIL (1-1,999 SF) LOW RISK",7230 VARIEL AVE STE G,CANOGA PARK,91303,34.2016155,-118.5927535653,"(34.2016155, -118.5927535653)"
343,FA0004485,98~ STORE YOUR CONVENIENCE,"FOOD MKT RETAIL (1-1,999 SF) LOW RISK",4415 EAGLE ROCK BLVD,LOS ANGELES,90041,34.1246272535,-118.22065776299999,"(34.1246272535, -118.220657763)"
344,FA0004006,7-ELEVEN #13993 E,"FOOD MKT RETAIL (2,000+ SF) LOW RISK",530 N DIAMOND BAR BLVD #,DIAMOND BAR,91765,34.0295269016,-117.81015089709999,"(34.0295269016, -117.8101508971)"
345,FA0266006,21MARKET,"FOOD MKT RETAIL (1-1,999 SF) LOW RISK",2020 HOOPER AVE,LOS ANGELES,90011-1335,34.0199381311,-118.247067611,"(34.0199381311, -118.247067611)"
346,FA0003818,7-ELEVEN,"FOOD MKT RETAIL (1-1,999 SF) MODERATE RISK",8244 S NORWALK BLVD,WHITTIER,90606,33.9687584551,-118.0711665538,"(33.9687584551, -118.0711665538)"
347,FA0056811,7-ELEVEN STORE #39648A,"FOOD MKT RETAIL (1-1,999 SF) MODERATE RISK",14160 PARAMOUNT BLVD,PARAMOUNT,90723,33.9049574815,-118.1600141504,"(33.9049574815, -118.1600141504)"
348,FA0138754,7-ELEVEN #39672,"FOOD MKT RETAIL (1-1,999 SF) LOW RISK",3708 W SLAUSON AVE,LOS ANGELES,90043,33.9887792145,-118.338182049,"(33.9887792145, -118.338182049)"
349,FA0056820,7-ELEVEN #25330-C,"FOOD MKT RETAIL (1-1,999 SF) LOW RISK",5791 RODEO RD,LOS ANGELES,90016,34.0218643791,-118.371750416,"(34.0218643791, -118.371750416)"
351,FA0056921,99 CENTS ONLY STORE,"FOOD MKT RETAIL (2,000+ SF) LOW RISK",1030 E AVENUE J,LANCASTER,93535,34.6881457285,-118.11084096180001,"(34.6881457285, -118.1108409618)"
352,FA0004196,7-ELEVEN #18517-D,"FOOD MKT RETAIL (1-1,999 SF) MODERATE RISK",3507 LIBERTY BLVD,SOUTH GATE,90280,33.9602124137,-118.2050520963,"(33.9602124137, -118.2050520963)"
353,FA0002272,7-ELEVEN #21044B,"FOOD MKT RETAIL (1-1,999 SF) MODERATE RISK",14835 S PIONEER BLVD,NORWALK,90650,33.8970604508,-118.0826835628,"(33.8970604508, -118.0826835628)"
354,FA0004181,7-ELEVEN STORE 39559B,"FOOD MKT RETAIL (2,000+ SF) LOW RISK",1212 N WHITE AVE,POMONA,91768,34.0700840413,-117.758938305,"(34.0700840413, -117.758938305)"
355,FA0268125,7-ELEVEN STORE 18090F,"FOOD MKT RETAIL (2,000+ SF) LOW RISK",6564 E OLYMPIC BLVD,LOS ANGELES,90022-5451,34.0114957144,-118.1311375855,"(34.0114957144, -118.1311375855)"
356,FA0003827,7-ELEVEN #34147A,"FOOD MKT RETAIL (1-1,999 SF) LOW RISK",3201 N BROADWAY,LOS ANGELES,90031,34.0739190341,-118.2076335391,"(34.0739190341, -118.2076335391)"
357,FA0257108,7-ELEVEN STORE 29939D,"FOOD MKT RETAIL (1-1,999 SF) LOW RISK",1347 S AZUSA AVE STE A,WEST COVINA,91791,34.0506273353,-117.9081161857,"(34.0506273353, -117.9081161857)"
358,FA0003815,7-ELEVEN #17896,"FOOD MKT RETAIL (2,000+ SF) LOW RISK",12515 E PHILADELPHIA ST,WHITTIER,90601,33.9793188028,-118.0423742761,"(33.9793188028, -118.0423742761)"
359,FA0004135,98 CENTS & UP OUTLET,"FOOD MKT RETAIL (1-1,999 SF) LOW RISK",3660 E 1ST ST,LOS ANGELES,90063,34.0359358381,-118.1875034533,"(34.0359358381, -118.1875034533)"
360,FA0003540,7-11 INC,"FOOD MKT RETAIL (2,000+ SF) LOW RISK",12403 VENICE BLVD,LOS ANGELES,90061,34.003823777,-118.43388568290001,"(34.003823777, -118.4338856829)"
361,FA0221465,7 ELEVEN STORE #39523B,"FOOD MKT RETAIL (1-1,999 SF) LOW RISK",15006 ALONDRA BLVD,LA MIRADA,90638,33.8880273371,-118.0110862402,"(33.8880273371, -118.0110862402)"
362,FA0266995,5857 SUNSET,"FOOD MKT RETAIL (1-1,999 SF) LOW RISK",5857 W SUNSET BLVD,LOS ANGELES,90028-6606,34.0980634827,-118.3177035,"(34.0980634827, -118.3177035)"
363,FA0003983,7-ELEVEN #25185-B,"FOOD MKT RETAIL (2,000+ SF) LOW RISK",14656 FRANCISQUITO AVE,LA PUENTE,91746,34.057264840100004,-117.9591608585,"(34.0572648401, -117.9591608585)"
364,FA0240504,7-ELEVEN STORE 37689A,"FOOD MKT RETAIL (2,000+ SF) MODERATE RISK",2282 FIRESTONE BLVD # 106,LOS ANGELES,90002,33.9578232669,-118.2312873692,"(33.9578232669, -118.2312873692)"
365,FA0160269,7-ELEVEN #39569B,"FOOD MKT RETAIL (1-1,999 SF) LOW RISK",901 CENTRAL AVE,GLENDALE,91203,34.1588188615,-118.25822087,"(34.1588188615, -118.25822087)"
366,FA0138094,7-ELEVEN STORE 22381C,"FOOD MKT RETAIL (1-1,999 SF) LOW RISK",5138 N FIGUEROA ST,LOS ANGELES,90042,34.1060192176,-118.19964925139999,"(34.1060192176, -118.1996492514)"
367,FA0056889,99 CENT OUTLET,"FOOD MKT RETAIL (1-1,999 SF) LOW RISK",3608 W SLAUSON AVE,LOS ANGELES,90043,33.9888592724,-118.33552799200001,"(33.9888592724, -118.335527992)"
368,FA0003537,7-11,"FOOD MKT RETAIL (1-1,999 SF) LOW RISK",13260 SHERMAN WAY,NORTH HOLLYWOOD,91605,34.2010267629,-118.42198840100001,"(34.2010267629, -118.421988401)"
369,FA0003969,7-ELEVEN STORE #24622A,"FOOD MKT RETAIL (2,000+ SF) LOW RISK",843 W GLENOAKS BLVD,GLENDALE,91202,34.1611155254,-118.27435087200001,"(34.1611155254, -118.274350872)"
370,FA0056901,99 CENTS ONLY STORE #311,"FOOD MKT RETAIL (2,000+ SF) LOW RISK",2159 PACIFIC COAST HWY,LOMITA,90717,33.7896781062,-118.318864382,"(33.7896781062, -118.318864382)"
371,FA0003369,3000 YEARS HEALTH CENTER,"FOOD MKT RETAIL (1-1,999 SF) LOW RISK",823 N BROADWAY,LOS ANGELES,90012,34.0630601093,-118.2381360771,"(34.0630601093, -118.2381360771)"
372,FA0056748,7-ELEVEN SOTE 35639A,"FOOD MKT RETAIL (1-1,999 SF) LOW RISK",1800 E SLAUSON AVE,LOS ANGELES,90058,33.9889445052,-118.3093121284,"(33.9889445052, -118.3093121284)"
373,FA0267253,7-ELEVEN STORE 35434C,"FOOD MKT RETAIL (2,000+ SF) LOW RISK",13003 VAN NUYS BLVD,PACOIMA,91331,34.270350903600004,-118.4163769673,"(34.2703509036, -118.4163769673)"
374,FA0003844,7-ELEVEN,"FOOD MKT RETAIL (2,000+ SF) LOW RISK",17720 BURBANK BLVD,ENCINO,91316,34.1720727122,-118.5192103368,"(34.1720727122, -118.5192103368)"
375,FA0056437,$ 1 DISCOUNT HOUSE,"FOOD MKT RETAIL (1-1,999 SF) LOW RISK",211 S GARFIELD AVE,MONTEREY PARK,91754,34.061105497199996,-118.1229731115,"(34.0611054972, -118.1229731115)"
377,FA0003846,7-ELEVEN,"FOOD MKT RETAIL (2,000+ SF) MODERATE RISK",11656 WILSHIRE BLVD,LOS ANGELES,90025,34.0498390064,-118.46010139239999,"(34.0498390064, -118.4601013924)"
378,FA0167762,1430 N LA BREA LLC,"FOOD MKT RETAIL (1-1,999 SF) LOW RISK",1430 N LA BREA AVE,INGLEWOOD,90302-1219,33.980820186,-118.3581027322,"(33.980820186, -118.3581027322)"
379,FA0056757,7-ELEVEN,"FOOD MKT RETAIL (2,000+ SF) LOW RISK",1430 MOUNTAIN AVE # 106,DUARTE,91010,34.137162383,-117.98631243959998,"(34.137162383, -117.9863124396)"
381,FA0269429,7-ELEVEN 34630A,"FOOD MKT RETAIL (2,000+ SF) LOW RISK",6262 ROSEMEAD BLVD,TEMPLE CITY,91780,34.113168,-118.0735992699,"(34.113168, -118.0735992699)"
383,FA0166367,99 CENT ONLY STORE,"FOOD MKT RETAIL (2,000+ SF) LOW RISK",8451 CRENSHAW BLVD,INGLEWOOD,90305-1943,33.9615212734,-118.3268235968,"(33.9615212734, -118.3268235968)"
384,FA0003831,7-ELEVEN FOOD STORE #25599,"FOOD MKT RETAIL (2,000+ SF) LOW RISK",4650 FRANKLIN AVE,LOS ANGELES,90027,34.1052725463,-118.2912381371,"(34.1052725463, -118.2912381371)"
385,FA0056735,76 STATION,"FOOD MKT RETAIL (1-1,999 SF) LOW RISK",105 N NORTH AVENUE 52,LOS ANGELES,90042,34.106502820799996,-118.1996285856,"(34.1065028208, -118.1996285856)"
386,FA0175427,7-ELEVEN # 39760A,"FOOD MKT RETAIL (1-1,999 SF) LOW RISK",1752 W SLAUSON AVE STE A,LOS ANGELES,90047-1119,33.9889917306,-118.3084288939,"(33.9889917306, -118.3084288939)"
387,FA0003996,7-ELEVEN #2175-33403A,"FOOD MKT RETAIL (2,000+ SF) LOW RISK",10707 LOWER AZUSA RD,EL MONTE,91731,34.09304809,-118.0350780949,"(34.09304809, -118.0350780949)"
388,FA0160666,99 BARGAIN,"FOOD MKT RETAIL (2,000+ SF) LOW RISK",21919 AVALON BLVD,CARSON,90745-3306,33.8283939835,-118.2638695736,"(33.8283939835, -118.2638695736)"
389,FA0139043,24 HOUR FITNESS,"FOOD MKT RETAIL (1-1,999 SF) LOW RISK",1417 2ND ST,SANTA MONICA,90401,34.0146805359,-118.4962750169,"(34.0146805359, -118.4962750169)"
390,FA0056792,7-ELEVEN,"FOOD MKT RETAIL (1-1,999 SF) LOW RISK",803 W ARROW HWY,AZUSA,91702,34.1074222446,-117.9169039307,"(34.1074222446, -117.9169039307)"
391,FA0056769,7-ELEVEN #18840-E,"FOOD MKT RETAIL (2,000+ SF) LOW RISK",1085 N CITRUS AVE,COVINA,91722,34.0991249606,-117.8905950723,"(34.0991249606, -117.8905950723)"
392,FA0003693,7 ELEVEN #13946A,"FOOD MKT RETAIL (2,000+ SF) LOW RISK",1001 E GRAND AVE,POMONA,91766,34.0482995318,-117.7365973133,"(34.0482995318, -117.7365973133)"
393,FA0056908,99 CENTS ONLY STORE,"FOOD MKT RETAIL (1-1,999 SF) LOW RISK",422 E WASHINGTON BLVD,LOS ANGELES,90023,34.029090696,-118.26077365629999,"(34.029090696, -118.2607736563)"
394,FA0056773,7-ELEVEN #20313E,"FOOD MKT RETAIL (1-1,999 SF) LOW RISK",1878 PACIFIC COAST HWY,LOMITA,90717,33.7893484229,-118.3114729402,"(33.7893484229, -118.3114729402)"
395,FA0138922,24 HOUR FITNESS #145,"FOOD MKT RETAIL (1-1,999 SF) LOW RISK",8350 VAN NUYS BLVD,PANORAMA CITY,91402,34.223112092,-118.448549121,"(34.223112092, -118.448549121)"
397,FA0002282,7-ELEVEN,"FOOD MKT RETAIL (2,000+ SF) LOW RISK",7625 EASTERN AVE,BELL GARDENS,90201,33.963452716599996,-118.1656695141,"(33.9634527166, -118.1656695141)"
398,FA0002494,99 CENTS ONLY STORE #109,"FOOD MKT RETAIL (1-1,999 SF) LOW RISK",442 W RANCHO VISTA BLVD,PALMDALE,93551,34.601598996,-118.13615236049999,"(34.601598996, -118.1361523605)"
400,FA0002281,7-ELEVEN #34521,"FOOD MKT RETAIL (2,000+ SF) LOW RISK",1410 S GRAND AVE,GLENDORA,91740,34.1136058011,-117.8721917329,"(34.1136058011, -117.8721917329)"
401,FA0160123,7-ELEVEN STORE 39298B,"FOOD MKT RETAIL (1-1,999 SF) MODERATE RISK",12861 VANOWEN ST,NORTH HOLLYWOOD,91605,34.194091777,-118.4130606386,"(34.194091777, -118.4130606386)"
402,FA0137978,4 UR HEALTH,"FOOD MKT RETAIL (1-1,999 SF) LOW RISK",6355 ATLANTIC AVE,BELL,90201,33.9785543108,-118.18703419090001,"(33.9785543108, -118.1870341909)"
403,FA0002311,7-ELEVEN #27329,"FOOD MKT RETAIL (1-1,999 SF) LOW RISK",11400 S ATLANTIC AVE,LYNWOOD,90262,33.9206979338,-118.1872723483,"(33.9206979338, -118.1872723483)"
404,FA0258839,7-ELEVEN STORE 13882A,"FOOD MKT RETAIL (2,000+ SF) LOW RISK",5683 N LAKE LINDERO DR,AGOURA HILLS,91301,34.1543879686,-118.78914665299999,"(34.1543879686, -118.789146653)"
405,FA0002487,99 CENTS ONLY STORE #0061,"FOOD MKT RETAIL (2,000+ SF) LOW RISK",12711 SHERMAN WAY,NORTH HOLLYWOOD,91605,34.201366993200004,-118.4107348341,"(34.2013669932, -118.4107348341)"
406,FA0239800,7-ELEVEN STORE 18526D,"FOOD MKT RETAIL (2,000+ SF) LOW RISK",8708 ATLANTIC AVE,SOUTH GATE,90280,33.9520690268,-118.1831578198,"(33.9520690268, -118.1831578198)"
407,FA0002313,7-ELEVEN #189190,"FOOD MKT RETAIL (1-1,999 SF) LOW RISK",19259 SATICOY ST,RESEDA,91335,34.2085181962,-118.5530272913,"(34.2085181962, -118.5530272913)"
408,FA0158558,7-ELEVEN STORE #20336D,"FOOD MKT RETAIL (1-1,999 SF) LOW RISK",16929 ROSCOE BLVD,NORTHRIDGE,91343,34.2213829212,-118.5020532636,"(34.2213829212, -118.5020532636)"
409,FA0003986,7-ELEVEN #26147,"FOOD MKT RETAIL (2,000+ SF) LOW RISK",7153 LINDLEY AVE,RESEDA,91335,34.2005829996,-118.52748714030001,"(34.2005829996, -118.5274871403)"
410,FA0003859,7-ELEVEN STORE #19059B,"FOOD MKT RETAIL (2,000+ SF) LOW RISK",4800 TEMPLE CITY BLVD,TEMPLE CITY,91780,34.089536357600004,-118.05713971530001,"(34.0895363576, -118.0571397153)"
411,FA0003828,7-ELEVEN #20580-D,"FOOD MKT RETAIL (1-1,999 SF) LOW RISK",5962 W PICO BLVD,LOS ANGELES,90035,34.0519447692,-118.3695708855,"(34.0519447692, -118.3695708855)"
412,FA0163405,7-ELEVEN 16283D,"FOOD MKT RETAIL (2,000+ SF) LOW RISK",11666 BURBANK BLVD,NORTH HOLLYWOOD,91601,34.172029369099995,-118.3867099918,"(34.1720293691, -118.3867099918)"
413,FA0241325,7-ELEVEN STORE 17210D,"FOOD MKT RETAIL (2,000+ SF) LOW RISK",660 E FOOTHILL BLVD,SAN DIMAS,91773,34.1224129457,-117.7944336751,"(34.1224129457, -117.7944336751)"
414,FA0002150,7-ELEVEN #33590A/2174,"FOOD MKT RETAIL (2,000+ SF) MODERATE RISK",14968 MULBERRY DR,WHITTIER,90604,33.9349598883,-118.01232163649999,"(33.9349598883, -118.0123216365)"
416,FA0263518,7-ELEVEN STORE 25848-D,"FOOD MKT RETAIL (2,000+ SF) LOW RISK",3470 W 6TH ST # 1,LOS ANGELES,90020,34.0635755206,-118.29753377700001,"(34.0635755206, -118.297533777)"
418,FA0137311,7-ELEVEN STORE # 36874A,"FOOD MKT RETAIL (2,000+ SF) LOW RISK",420 S GLENDALE AVE #1,GLENDALE,91205,34.141225986799995,-118.2499183507,"(34.1412259868, -118.2499183507)"
419,FA0004233,911 FOOD MARKET,"FOOD MKT RETAIL (1-1,999 SF) LOW RISK",11909 W PICO BLVD,LOS ANGELES,90064,34.0302885888,-118.4487330322,"(34.0302885888, -118.4487330322)"
420,FA0002294,7-ELEVEN,"FOOD MKT RETAIL (2,000+ SF) LOW RISK",5076 W SUNSET BLVD,LOS ANGELES,90027,34.0978924509,-118.3003038441,"(34.0978924509, -118.3003038441)"
421,FA0004179,7-ELEVEN STORE #22666,"FOOD MKT RETAIL (2,000+ SF) LOW RISK",13700 VANOWEN ST,VAN NUYS,91405,34.1938062833,-118.4312363745,"(34.1938062833, -118.4312363745)"
422,FA0180001,7-ELEVEN STORE 24440F,"FOOD MKT RETAIL (2,000+ SF) MODERATE RISK",861 W ROSECRANS AVE,GARDENA,90247,33.9019184417,-118.2912400934,"(33.9019184417, -118.2912400934)"
423,FA0002273,7-ELEVEN #24479-B,"FOOD MKT RETAIL (2,000+ SF) LOW RISK",730 E FOOTHILL BLVD,POMONA,91767,34.1068273593,-117.7372512834,"(34.1068273593, -117.7372512834)"
424,FA0261978,7-ELEVEN STORE 37200A,"FOOD MKT RETAIL (2,000+ SF) MODERATE RISK",10840 GARFIELD AVE,SOUTH GATE,90280,33.930239763,-118.167970785,"(33.930239763, -118.167970785)"
425,FA0003802,7-ELEVEN STORE #33404B,"FOOD MKT RETAIL (1-1,999 SF) MODERATE RISK",3311 W CENTURY BLVD,INGLEWOOD,90303,33.9456172077,-118.3294402966,"(33.9456172077, -118.3294402966)"
426,FA0003835,7-ELEVEN #18000-C,"FOOD MKT RETAIL (2,000+ SF) LOW RISK",16860 SHERMAN WAY,VAN NUYS,91406,34.2010279935,-118.50026137719999,"(34.2010279935, -118.5002613772)"
428,FA0002602,99 CENTS ONLY STORE #0355,"FOOD MKT RETAIL (1-1,999 SF) LOW RISK",1851 E WILLOW ST,SIGNAL HILL,90755,33.8045252683,-118.16927940110001,"(33.8045252683, -118.1692794011)"
429,FA0260145,7-ELEVEN STORE 34635C,"FOOD MKT RETAIL (1-1,999 SF) LOW RISK",3724 N MISSION RD,LOS ANGELES,90031,34.0688143983,-118.2005000277,"(34.0688143983, -118.2005000277)"
431,FA0003023,24 HOUR FITNESS #882,"FOOD MKT RETAIL (1-1,999 SF) LOW RISK",1903 W EMPIRE AVE,BURBANK,91504,34.1925592161,-118.3317098215,"(34.1925592161, -118.3317098215)"
432,FA0240567,7-ELEVEN #37274,"FOOD MKT RETAIL (2,000+ SF) LOW RISK",12801 S CENTRAL AVE,LOS ANGELES,90059,33.9160307237,-118.25452228420001,"(33.9160307237, -118.2545222842)"
434,FA0242066,72 FISH MARKET,"FOOD MKT RETAIL (2,000+ SF) HIGH RISK",18049 GALE AVE,INDUSTRY,91748,33.9950100249,-117.91053592909999,"(33.9950100249, -117.9105359291)"
435,FA0004009,7-ELEVEN,"FOOD MKT RETAIL (2,000+ SF) LOW RISK",22020 CALVERT ST,WOODLAND HILLS,91367,34.180941208200004,-118.6066166059,"(34.1809412082, -118.6066166059)"
436,FA0002334,7-ELEVEN #22069-A,"FOOD MKT RETAIL (2,000+ SF) LOW RISK",22215 SHERMAN WAY,CANOGA PARK,91304,34.2011849828,-118.6108222511,"(34.2011849828, -118.6108222511)"
437,FA0003845,7-ELEVEN FOOD STORE # 16278C,"FOOD MKT RETAIL (2,000+ SF) LOW RISK",6625 LANKERSHIM BLVD,NORTH HOLLYWOOD,91606,34.1911828529,-118.3879771517,"(34.1911828529, -118.3879771517)"
438,FA0003027,24 HOUR FITNESS CLUB #192,"FOOD MKT RETAIL (1-1,999 SF) LOW RISK",945 E DOMINGUEZ ST,CARSON,90746,33.841077853,-118.25846201120001,"(33.841077853, -118.2584620112)"
440,FA0003028,24 HOUR FITNESS #58,"FOOD MKT RETAIL (1-1,999 SF) LOW RISK",1600 S AZUSA AVE,INDUSTRY,91748,33.9934002771,-117.9266944967,"(33.9934002771, -117.9266944967)"
441,FA0004183,7-ELEVEN,"FOOD MKT RETAIL (2,000+ SF) LOW RISK",2055 N TOWNE AVE,POMONA,91767,34.0793361964,-117.74175678190001,"(34.0793361964, -117.7417567819)"
442,FA0039795,7 - ELEVEN,"FOOD MKT RETAIL (1-1,999 SF) LOW RISK",845 W ARROW HWY,SAN DIMAS,91773,34.1068081563,-117.82338788700001,"(34.1068081563, -117.823387887)"
443,FA0056601,24 HOUR FITNESS,"FOOD MKT RETAIL (1-1,999 SF) LOW RISK",15301 VENTURA BLVD,SHERMAN OAKS,91403,34.154113529899995,-118.4665419349,"(34.1541135299, -118.4665419349)"
444,FA0003512,7 AND LIQUOR STORE,"FOOD MKT RETAIL (1-1,999 SF) LOW RISK",13654 VICTORY BLVD,VAN NUYS,91401,34.1865022012,-118.43054176209999,"(34.1865022012, -118.4305417621)"
445,FA0002428,7TH STREET MARKET,"FOOD MKT RETAIL (1-1,999 SF) LOW RISK",1086 W 7TH ST,SAN PEDRO,90731,33.7380506647,-118.3008920672,"(33.7380506647, -118.3008920672)"
447,FA0056907,99 CENTS ONLY STORE #152,"FOOD MKT RETAIL (2,000+ SF) LOW RISK",14317 CLARK AVE,BELLFLOWER,90706,33.9030723148,-118.13491155700001,"(33.9030723148, -118.134911557)"
448,FA0003526,7 ELEVEN #27324B,"FOOD MKT RETAIL (1-1,999 SF) LOW RISK",1325 N GRAND AVE,WALNUT,91789,34.0460976998,-117.84972429049999,"(34.0460976998, -117.8497242905)"
449,FA0180509,7-ELEVEN STORE #18047C,"FOOD MKT RETAIL (1-1,999 SF) LOW RISK",7400 GARVEY AVE,ROSEMEAD,91770,34.062483532899996,-118.1078981416,"(34.0624835329, -118.1078981416)"
450,FA0162903,7-ELEVEN,"FOOD MKT RETAIL (1-1,999 SF) LOW RISK",15544 SAN FERNANDO MISSION BLVD,MISSION HILLS,91345,34.2716982376,-118.47115005290001,"(34.2716982376, -118.4711500529)"
452,FA0265336,4YC MINI MART,"FOOD MKT RETAIL (1-1,999 SF) LOW RISK",15301 VENTURA BLVD # P40,SHERMAN OAKS,91403,34.153889308000004,-118.4664893769,"(34.153889308, -118.4664893769)"
453,FA0004193,7-ELEVEN #23944,"FOOD MKT RETAIL (1-1,999 SF) LOW RISK",454 PACIFIC COAST HWY,HERMOSA BEACH,90254,33.8583712238,-118.3907206177,"(33.8583712238, -118.3907206177)"
454,FA0239308,7- ELEVEN STORE 14023F,"FOOD MKT RETAIL (2,000+ SF) LOW RISK",800 S GREENWOOD AVE,MONTEBELLO,90640,33.9990645122,-118.1169823123,"(33.9990645122, -118.1169823123)"
455,FA0004494,99 CENTS ONLY STORE #051,"FOOD MKT RETAIL (2,000+ SF) LOW RISK",2606 N BROADWAY,LOS ANGELES,90031,34.073485758000004,-118.2153336248,"(34.073485758, -118.2153336248)"
456,FA0002301,7-ELEVEN #29415L,"FOOD MKT RETAIL (2,000+ SF) LOW RISK",22401 VENTURA BLVD,WOODLAND HILLS,91364,34.1688144307,-118.61516528799999,"(34.1688144307, -118.615165288)"
457,FA0172080,7-ELEVEN STORE #34123B,"FOOD MKT RETAIL (2,000+ SF) LOW RISK",1831 S PACIFIC AVE,SAN PEDRO,90731,33.7272711881,-118.28813921049999,"(33.7272711881, -118.2881392105)"
458,FA0247876,7-ELEVEN STORE 39832A,"FOOD MKT RETAIL (2,000+ SF) MODERATE RISK",1770 N HIGHLAND AVE STE D & E,LOS ANGELES,90028,34.103487,-118.338412,"(34.103487, -118.338412)"
459,FA0002329,7-ELEVEN,"FOOD MKT RETAIL (1-1,999 SF) LOW RISK",2200 W MARINE AVE,GARDENA,90249,33.8943664179,-118.3180503374,"(33.8943664179, -118.3180503374)"
460,FA0056776,7-ELEVEN #35071,"FOOD MKT RETAIL (2,000+ SF) LOW RISK",8650 E BEVERLY BLVD,PICO RIVERA,90660,34.0118569755,-118.0862501522,"(34.0118569755, -118.0862501522)"
461,FA0263478,7-ELEVEN STORE 15964F,"FOOD MKT RETAIL (2,000+ SF) LOW RISK",265 S KINGSLEY DR,LOS ANGELES,90004,34.0693479745,-118.30294616409999,"(34.0693479745, -118.3029461641)"
462,FA0056817,7-ELEVEN #26213C,"FOOD MKT RETAIL (2,000+ SF) LOW RISK",6760 RESEDA BLVD,RESEDA,91335,34.193346177600006,-118.535837444,"(34.1933461776, -118.535837444)"
463,FA0003817,7-ELEVEN-#13832-E,"FOOD MKT RETAIL (2,000+ SF) LOW RISK",512 S CHAPEL AVE,ALHAMBRA,91801,34.0913701581,-118.1196641077,"(34.0913701581, -118.1196641077)"
465,FA0175400,7-ELEVEN #39714,"FOOD MKT RETAIL (1-1,999 SF) LOW RISK",6051 HOLLYWOOD BLVD # 111,LOS ANGELES,90028,34.1016885908,-118.3217595933,"(34.1016885908, -118.3217595933)"
466,FA0138703,7-ELEVEN STORE #34765H,"FOOD MKT RETAIL (2,000+ SF) LOW RISK",1535 FOOTHILL BLVD,LA CANADA FLINTRIDGE,91010,34.2096473965,-118.2108129089,"(34.2096473965, -118.2108129089)"
467,FA0003848,7-ELEVEN STORE 34491A,"FOOD MKT RETAIL (2,000+ SF) MODERATE RISK",3791 MLK JR BLVD,LYNWOOD,90262,33.928488289200004,-118.1997280242,"(33.9284882892, -118.1997280242)"
468,FA0138768,99 CENTS ONLY STORE,"FOOD MKT RETAIL (2,000+ SF) LOW RISK",300 RICHMOND ST,EL SEGUNDO,90245,33.9190687041,-118.41700679290001,"(33.9190687041, -118.4170067929)"
469,FA0056897,99 CENTS ONLY STORE #06,"FOOD MKT RETAIL (1-1,999 SF) LOW RISK",13023 S HAWTHORNE BLVD,HAWTHORNE,90250,33.914071488000005,-118.3531202668,"(33.914071488, -118.3531202668)"
470,FA0056894,99 CENTS ONLY STORE #0272,"FOOD MKT RETAIL (2,000+ SF) LOW RISK",11005 FIRESTONE BLVD STE 114,NORWALK,90650,33.9225163546,-118.0982978726,"(33.9225163546, -118.0982978726)"
471,FA0003705,7 STARS SUPER 99 PLUS,"FOOD MKT RETAIL (1-1,999 SF) LOW RISK",4869 GAGE AVE,BELL,90201,33.9772502244,-118.1784710625,"(33.9772502244, -118.1784710625)"
472,FA0056789,7-ELEVEN # 18086-B,"FOOD MKT RETAIL (1-1,999 SF) LOW RISK",381 E GARVEY AVE,MONTEREY PARK,91754,34.062824394699994,-118.1171781882,"(34.0628243947, -118.1171781882)"
473,FA0002328,7-ELEVEN STORE 39023B,"FOOD MKT RETAIL (1-1,999 SF) LOW RISK",4111 VENICE BLVD,LOS ANGELES,90019,34.0443301647,-118.3267968753,"(34.0443301647, -118.3267968753)"
474,FA0004169,7-ELEVEN STORE # 18889B,"FOOD MKT RETAIL (1-1,999 SF) LOW RISK",5345 LAUREL CANYON BLVD,VALLEY VILLAGE,91607,34.167986408699996,-118.3967063632,"(34.1679864087, -118.3967063632)"
475,FA0003820,7-ELEVEN #13834-B,"FOOD MKT RETAIL (2,000+ SF) MODERATE RISK",8475 SUNLAND BLVD,SUN VALLEY,91352,34.2245126216,-118.36585614129999,"(34.2245126216, -118.3658561413)"
477,FA0056800,7-ELEVEN #13891,"FOOD MKT RETAIL (2,000+ SF) LOW RISK",18916 ROSCOE BLVD,NORTHRIDGE,91324,34.2204193161,-118.54546854600001,"(34.2204193161, -118.545468546)"
481,FA0056452,101 CHESEBRO CHEVRON,"FOOD MKT RETAIL (1-1,999 SF) LOW RISK",5221 PALO COMADO CANYON RD,AGOURA HILLS,91301,34.1439386049,-118.7383574099,"(34.1439386049, -118.7383574099)"
483,FA0162734,7 ELEVEN #24207B,"FOOD MKT RETAIL (1-1,999 SF) MODERATE RISK",5870 E DEL AMO BLVD,LAKEWOOD,90713,33.8465812168,-118.1166665125,"(33.8465812168, -118.1166665125)"
484,FA0056471,10TH ST & I,"FOOD MKT RETAIL (1-1,999 SF) LOW RISK",1007 W AVENUE I,LANCASTER,93534,34.704271274499995,-118.1484961371,"(34.7042712745, -118.1484961371)"
485,FA0230652,99 AND UP MARKET,"FOOD MKT RETAIL (1-1,999 SF) LOW RISK",4200 PECK RD STE F,EL MONTE,91732,34.0805761127,-118.01947143,"(34.0805761127, -118.01947143)"
487,FA0242396,7-ELEVEN STORE 37723A,"FOOD MKT RETAIL (2,000+ SF) LOW RISK",2030 W 8TH ST STE A,LOS ANGELES,90057,34.0546276347,-118.2773225568,"(34.0546276347, -118.2773225568)"
488,FA0002138,7 ELEVEN STORE,"FOOD MKT RETAIL (2,000+ SF) LOW RISK",3975 WILSHIRE BLVD,LOS ANGELES,90010,34.061861485,-118.3136971614,"(34.061861485, -118.3136971614)"
489,FA0171630,168 MARKET #805,"FOOD MKT RETAIL (2,000+ SF) LOW RISK",19725 COLIMA RD,ROWLAND HEIGHTS,91748,33.9864770007,-117.8725912706,"(33.9864770007, -117.8725912706)"
490,FA0003847,7-ELEVEN #39347,"FOOD MKT RETAIL (2,000+ SF) LOW RISK",4400 MAINE AVE,BALDWIN PARK,91706,34.0927584321,-117.9601360469,"(34.0927584321, -117.9601360469)"
491,FA0001982,3RD ST CHEVRON,"FOOD MKT RETAIL (1-1,999 SF) LOW RISK",3817 W 3RD ST,LOS ANGELES,90020,34.0691795101,-118.29853282129999,"(34.0691795101, -118.2985328213)"
492,FA0226284,7-ELEVEN STORE 18820C,"FOOD MKT RETAIL (2,000+ SF) LOW RISK",11143 VENICE BLVD,LOS ANGELES,90034,34.013165139099996,-118.4169836984,"(34.0131651391, -118.4169836984)"
493,FA0245729,7 STAR MARKET,"FOOD MKT RETAIL (1-1,999 SF) LOW RISK",10117 S NORMANDIE AVE,LOS ANGELES,90044,33.9443508624,-118.30032193209999,"(33.9443508624, -118.3003219321)"
495,FA0003980,7-ELEVEN #16127C,"FOOD MKT RETAIL (1-1,999 SF) LOW RISK",20832 VANOWEN ST,CANOGA PARK,91304,34.1935678512,-118.58731598610001,"(34.1935678512, -118.5873159861)"
496,FA0056620,3 MIN MINI MARKET,"FOOD MKT RETAIL (1-1,999 SF) MODERATE RISK",8861 S BROADWAY,LOS ANGELES,90003,33.9564103067,-118.2784448351,"(33.9564103067, -118.2784448351)"
497,FA0056720,7-ELEVEN,"FOOD MKT RETAIL (1-1,999 SF) LOW RISK",10610 MAGNOLIA BLVD,NORTH HOLLYWOOD,91601,34.1647518578,-118.36201206959998,"(34.1647518578, -118.3620120696)"
498,FA0245315,7-ELEVEN STORE 37061A,"FOOD MKT RETAIL (1-1,999 SF) MODERATE RISK",3981 WHITTIER BLVD,LOS ANGELES,90023-2441,34.024224,-118.186543,"(34.024224, -118.186543)"
499,FA0047450,7-ELEVEN FOOD MARKET,"FOOD MKT RETAIL (1-1,999 SF) LOW RISK",1723 W MAIN ST,ALHAMBRA,91803,34.0919246437,-118.1423875557,"(34.0919246437, -118.1423875557)"
500,FA0137775,7-ELEVEN #39679A,"FOOD MKT RETAIL (2,000+ SF) LOW RISK",9800 RUSH ST #A,SOUTH EL MONTE,91733-2642,34.0518077636,-118.05551875409999,"(34.0518077636, -118.0555187541)"
502,FA0137384,7-ELEVEN #35988A,"FOOD MKT RETAIL (2,000+ SF) MODERATE RISK",14156 ROSECRANS AVE,SANTA FE SPRINGS,90670,33.9021965495,-118.0295257199,"(33.9021965495, -118.0295257199)"
503,FA0002583,99 CENTS ONLY STORE #014,"FOOD MKT RETAIL (2,000+ SF) LOW RISK",6161 ATLANTIC BLVD,MAYWOOD,90270,33.98242432,-118.1864472489,"(33.98242432, -118.1864472489)"
504,FA0263318,3775 VERMONT,"FOOD MKT RETAIL (2,000+ SF) LOW RISK",3775 S VERMONT AVE,LOS ANGELES,90007,34.017874554,-118.2915661824,"(34.017874554, -118.2915661824)"
505,FA0003797,7-ELEVEN #13736B,"FOOD MKT RETAIL (1-1,999 SF) LOW RISK",23525 CRENSHAW BLVD,TORRANCE,90505,33.8121608525,-118.32844995479999,"(33.8121608525, -118.3284499548)"
506,FA0255804,7-ELEVEN STORE 19882F,"FOOD MKT RETAIL (2,000+ SF) LOW RISK",7555 RESEDA BLVD,RESEDA,91335,34.2081066633,-118.53609468959999,"(34.2081066633, -118.5360946896)"
508,FA0159565,7-ELEVEN,"FOOD MKT RETAIL (2,000+ SF) LOW RISK",11550 GLENOAKS BLVD,PACOIMA,91331,34.2799330813,-118.4180053357,"(34.2799330813, -118.4180053357)"
509,FA0251723,7-ELEVEN STORE 37053A,"FOOD MKT RETAIL (2,000+ SF) MODERATE RISK",3601 SLAUSON AVE,MAYWOOD,90270-2631,33.988685362199995,-118.2006009642,"(33.9886853622, -118.2006009642)"
512,FA0004484,98 CENTS DISCOUNT STORE,"FOOD MKT RETAIL (2,000+ SF) LOW RISK",1601 E IMPERIAL HWY STE 103B,LOS ANGELES,90059,33.929676889899994,-118.24583234629999,"(33.9296768899, -118.2458323463)"
513,FA0003564,"7-ELEVEN, INC","FOOD MKT RETAIL (2,000+ SF) LOW RISK",10325 ZELZAH AVE,PORTER RANCH,91326,34.2580523498,-118.5235206547,"(34.2580523498, -118.5235206547)"
514,FA0003525,7 ELEVEN STORE 25922B,"FOOD MKT RETAIL (2,000+ SF) LOW RISK",1533 PECK RD,SOUTH EL MONTE,91733,34.040670368,-118.03661769950001,"(34.040670368, -118.0366176995)"
515,FA0251935,7-ELEVEN STORE 37706A,"FOOD MKT RETAIL (2,000+ SF) LOW RISK",2205 N SAN FERNANDO RD,LOS ANGELES,90065,34.1033856854,-118.2375906633,"(34.1033856854, -118.2375906633)"
516,FA0139008,99 CENT UP + WATER,"FOOD MKT RETAIL (1-1,999 SF) LOW RISK",4786 PECK RD STE A,EL MONTE,91732-1665,34.0905951884,-118.0144775022,"(34.0905951884, -118.0144775022)"
517,FA0171161,888 LIQUOR,"FOOD MKT RETAIL (1-1,999 SF) LOW RISK",8606 GARVEY AVE,ROSEMEAD,91770,34.0623413606,-118.08168777290001,"(34.0623413606, -118.0816877729)"
518,FA0011197,7-ELEVEN #39465-A,"FOOD MKT RETAIL (1-1,999 SF) LOW RISK",200 N HOLLYWOOD WAY,BURBANK,91505,34.1545170929,-118.3401493636,"(34.1545170929, -118.3401493636)"
519,FA0241023,7-ELEVEN STORE 33319C,"FOOD MKT RETAIL (2,000+ SF) LOW RISK",8502 ALONDRA BLVD,PARAMOUNT,90723,33.8891535167,-118.1509984132,"(33.8891535167, -118.1509984132)"
520,FA0056813,7-ELEVEN #39609A,"FOOD MKT RETAIL (1-1,999 SF) MODERATE RISK",10133 SAN FERNANDO RD,PACOIMA,91331,34.254235661799996,-118.4098580344,"(34.2542356618, -118.4098580344)"
521,FA0003702,7 KING MINI MARKET,"FOOD MKT RETAIL (1-1,999 SF) LOW RISK",17646 LASSEN ST STE #1,NORTHRIDGE,91325,34.250332602600004,-118.5194993826,"(34.2503326026, -118.5194993826)"
522,FA0241145,168 MARKET #801,"FOOD MKT RETAIL (2,000+ SF) HIGH RISK",1421 E VALLEY BLVD,ALHAMBRA,91801-5239,34.0792774674,-118.1098966717,"(34.0792774674, -118.1098966717)"
523,FA0001945,24 HOUR FITNESS,"FOOD MKT RETAIL (1-1,999 SF) LOW RISK",1335 W RANCHO VISTA BLVD,PALMDALE,93551,34.6018566363,-118.1526434658,"(34.6018566363, -118.1526434658)"
524,FA0056719,7 ELEVEN STORE # 33028B,"FOOD MKT RETAIL (2,000+ SF) LOW RISK",2200 W SUNSET BLVD,LOS ANGELES,90026,34.0778411004,-118.2662255348,"(34.0778411004, -118.2662255348)"
526,FA0056794,7-ELEVEN #33459-B,"FOOD MKT RETAIL (2,000+ SF) LOW RISK",5536 E WASHINGTON BLVD,COMMERCE,90040,34.000167434,-118.160196968,"(34.000167434, -118.160196968)"
527,FA0003697,7 ELEVEN #20295,"FOOD MKT RETAIL (2,000+ SF) LOW RISK",400 W FOOTHILL BLVD,MONROVIA,91016,34.1508233378,-118.0079587653,"(34.1508233378, -118.0079587653)"
529,FA0239062,7-ELEVEN # 18839D,"FOOD MKT RETAIL (1-1,999 SF) MODERATE RISK",630 WILSHIRE BLVD,SANTA MONICA,90401,34.0209770002,-118.4959568302,"(34.0209770002, -118.4959568302)"
530,FA0003990,7-ELEVEN STORE #20297E,"FOOD MKT RETAIL (2,000+ SF) LOW RISK",227 S ROSEMEAD BLVD,PASADENA,91107,34.1424707037,-118.07366073870001,"(34.1424707037, -118.0736607387)"
532,FA0056785,7-ELEVEN,"FOOD MKT RETAIL (2,000+ SF) LOW RISK",437 N LA BREA AVE,INGLEWOOD,90302,33.9684578732,-118.35574214440001,"(33.9684578732, -118.3557421444)"
533,FA0002818,$1 STORE,"FOOD MKT RETAIL (1-1,999 SF) LOW RISK",5573 ROSEMEAD BLVD,TEMPLE CITY,91780,34.1007173812,-118.0736423287,"(34.1007173812, -118.0736423287)"
534,FA0004195,7-ELEVEN #16464-G,"FOOD MKT RETAIL (2,000+ SF) LOW RISK",5120 ZELZAH AVE,TARZANA,91356,34.1640782721,-118.52188065860001,"(34.1640782721, -118.5218806586)"
535,FA0056893,99 CENTS ONLY STORE #130,"FOOD MKT RETAIL (2,000+ SF) LOW RISK",10819 LONG BEACH BLVD,LYNWOOD,90262,33.9348390227,-118.2130338168,"(33.9348390227, -118.2130338168)"
536,FA0266191,7-ELEVEN,"FOOD MKT RETAIL (2,000+ SF) LOW RISK",123 WILSHIRE BLVD # 101,LOS ANGELES,90017-1970,34.0481042239,-118.2561355759,"(34.0481042239, -118.2561355759)"
537,FA0244450,1435 N LA BREA AVE.,"FOOD MKT RETAIL (2,000+ SF) LOW RISK",1435 LA BREA AVE,INGLEWOOD,90302,33.9803617082,-118.3582347816,"(33.9803617082, -118.3582347816)"
538,FA0136849,7-ELEVEN #39342,"FOOD MKT RETAIL (2,000+ SF) LOW RISK",150 S CITRUS ST,WEST COVINA,91791,34.0701410892,-117.8900960207,"(34.0701410892, -117.8900960207)"
539,FA0252460,7- ELEVEN STORE 34372B,"FOOD MKT RETAIL (2,000+ SF) LOW RISK",6224 PACIFIC BLVD,HUNTINGTON PARK,90255-2925,33.9837293922,-118.2251594159,"(33.9837293922, -118.2251594159)"
540,FA0002426,7-ELEVEN FOOD STORE #26895B,"FOOD MKT RETAIL (2,000+ SF) LOW RISK",1100 W COMMONWEALTH AVE STE A,ALHAMBRA,91803,34.0874563742,-118.1346995465,"(34.0874563742, -118.1346995465)"
543,FA0245522,7-ELEVEN STORE 33601B,"FOOD MKT RETAIL (2,000+ SF) LOW RISK",31186 HAWTHORNE BLVD,RANCHO PALOS VERDES,90275,33.749148999999996,-118.407261,"(33.749149, -118.407261)"
544,FA0003976,7-ELEVEN #2175-20248D,"FOOD MKT RETAIL (2,000+ SF) LOW RISK",2705 E HUNTINGTON DR,DUARTE,91010,34.1392362263,-117.94652375940001,"(34.1392362263, -117.9465237594)"
546,FA0003814,7-ELEVEN #18818B,"FOOD MKT RETAIL (1-1,999 SF) LOW RISK",17001 NORDHOFF ST,NORTHRIDGE,91325,34.235893100300004,-118.5026639452,"(34.2358931003, -118.5026639452)"
547,FA0003798,7-ELEVEN,"FOOD MKT RETAIL (1-1,999 SF) MODERATE RISK",5401 S FIGUEROA ST STE 9,LOS ANGELES,90037,33.9930924341,-118.28286901959999,"(33.9930924341, -118.2828690196)"
548,FA0056707,6TH STREET MARKET,"FOOD MKT RETAIL (1-1,999 SF) MODERATE RISK",212 W 6TH ST,LOS ANGELES,90014,34.046152857399996,-118.2514512432,"(34.0461528574, -118.2514512432)"
549,FA0004498,99 CENTS ONLY STORE #047,"FOOD MKT RETAIL (2,000+ SF) LOW RISK",18215 SHERMAN WAY,RESEDA,91335,34.2012165022,-118.5298335,"(34.2012165022, -118.5298335)"
552,FA0248659,7-ELEVEN STORE 25174B,"FOOD MKT RETAIL (2,000+ SF) LOW RISK",2055 W GLENOAKS BLVD,GLENDALE,91201,34.1766044356,-118.29703279569999,"(34.1766044356, -118.2970327957)"
553,FA0004157,99 CENTS ONLY STORE #310,"FOOD MKT RETAIL (2,000+ SF) LOW RISK",2701 MANHATTAN BEACH BLVD,REDONDO BEACH,90278,33.8886325242,-118.3624640293,"(33.8886325242, -118.3624640293)"
554,FA0056805,7-ELEVEN,"FOOD MKT RETAIL (2,000+ SF) LOW RISK",3100 BEVERLY BLVD,LOS ANGELES,90057,34.0717736246,-118.28246446780001,"(34.0717736246, -118.2824644678)"
555,FA0004176,7-ELEVEN #292261-B,"FOOD MKT RETAIL (1-1,999 SF) LOW RISK",7040 W SUNSET BLVD STE #A,LOS ANGELES,90028,34.0979425655,-118.3431098404,"(34.0979425655, -118.3431098404)"
556,FA0056616,2-M LIQUOR,"FOOD MKT RETAIL (1-1,999 SF) LOW RISK",2809 E SLAUSON AVE,HUNTINGTON PARK,90255,33.9895039209,-118.2196473516,"(33.9895039209, -118.2196473516)"
558,FA0249346,7-ELEVEN STORE 13990F,"FOOD MKT RETAIL (2,000+ SF) LOW RISK",17020 E CYPRESS ST,COVINA,91722,34.0957864774,-117.91582144459998,"(34.0957864774, -117.9158214446)"
559,FA0173644,7-ELEVEN STORE 39761A,"FOOD MKT RETAIL (1-1,999 SF) MODERATE RISK",2811 FIRESTONE BLVD #102,SOUTH GATE,90280,33.9557183129,-118.2209770583,"(33.9557183129, -118.2209770583)"
560,FA0003851,7-ELEVEN FOOD STORE,"FOOD MKT RETAIL (2,000+ SF) LOW RISK",1519 N GAFFEY ST,SAN PEDRO,90731,33.7580386349,-118.2925506535,"(33.7580386349, -118.2925506535)"
561,FA0155793,4 LIFE LOS ANGELES,"FOOD MKT RETAIL (1-1,999 SF) LOW RISK",11563 PARAMOUNT BLVD,DOWNEY,90241,33.9394420546,-118.14053139290002,"(33.9394420546, -118.1405313929)"
562,FA0004153,99 CENTS ONLY STORE #003,"FOOD MKT RETAIL (1-1,999 SF) LOW RISK",1521 W BEVERLY BLVD,MONTEBELLO,90640,34.0188766785,-118.1154988524,"(34.0188766785, -118.1154988524)"
563,FA0203925,7-ELEVEN  39677A,"FOOD MKT RETAIL (2,000+ SF) LOW RISK",8307 S LA CIENEGA BLVD,INGLEWOOD,90301-1522,33.9630961414,-118.3704474338,"(33.9630961414, -118.3704474338)"
564,FA0250153,365 BY WHOLE FOODS MARKET,"FOOD MKT RETAIL (2,000+ SF) LOW RISK",2121 CLOVERFIELD BLVD,SANTA MONICA,90404,34.0220229668,-118.4662119634,"(34.0220229668, -118.4662119634)"
566,FA0001951,24 HOUR FITNESS,"FOOD MKT RETAIL (1-1,999 SF) LOW RISK",13312 E IMPERIAL HWY,SANTA FE SPRINGS,90670,33.9168819217,-118.0485041026,"(33.9168819217, -118.0485041026)"
567,FA0003816,7-ELEVEN STORE 17981F,"FOOD MKT RETAIL (2,000+ SF) LOW RISK",1707 N INDIAN HILL BLVD,POMONA,91767,34.0761809929,-117.71965347,"(34.0761809929, -117.71965347)"
570,FA0026410,76 TORRANCE / 7-ELEVEN 39667A,"FOOD MKT RETAIL (1-1,999 SF) LOW RISK",2504 TORRANCE BLVD,TORRANCE,90503,33.8360539227,-118.32910425370001,"(33.8360539227, -118.3291042537)"
571,FA0002335,7-ELEVEN # 33154,"FOOD MKT RETAIL (1-1,999 SF) MODERATE RISK",27602 NEWHALL RANCH RD,VALENCIA,91355,34.4368709169,-118.56459750450001,"(34.4368709169, -118.5645975045)"
573,FA0262882,7-ELEVEN STORE 37150B,"FOOD MKT RETAIL (2,000+ SF) MODERATE RISK",600 E IMPERIAL HWY,LOS ANGELES,90059-2325,33.931006514,-118.2647815511,"(33.931006514, -118.2647815511)"
574,FA0004188,7-ELEVEN,"FOOD MKT RETAIL (2,000+ SF) LOW RISK",17710 SATICOY ST,RESEDA,91335,34.2082509546,-118.5188989105,"(34.2082509546, -118.5188989105)"
575,FA0264204,6300 SLAUSON,"FOOD MKT RETAIL (1-1,999 SF) LOW RISK",6300 W SLAUSON AVE,CULVER CITY,90230,33.9886085467,-118.3957140329,"(33.9886085467, -118.3957140329)"
576,FA0004000,7-ELEVEN,"FOOD MKT RETAIL (2,000+ SF) LOW RISK",5401 E BEVERLY BLVD,LOS ANGELES,90022,34.0297385969,-118.1492823206,"(34.0297385969, -118.1492823206)"
577,FA0003819,7-ELEVEN #17448-C,"FOOD MKT RETAIL (2,000+ SF) LOW RISK",455 E FOOTHILL BLVD,AZUSA,91702,34.133859033,-117.9026781792,"(34.133859033, -117.9026781792)"
579,FA0203311,7-ELEVEN #37062A,"FOOD MKT RETAIL (2,000+ SF) LOW RISK",7117 S VERMONT AVE,LOS ANGELES,90044,33.974918149699995,-118.2918986192,"(33.9749181497, -118.2918986192)"
581,FA0002132,7 DAY LIQUOR MART,"FOOD MKT RETAIL (1-1,999 SF) LOW RISK",6100 N BELLFLOWER BLVD,LAKEWOOD,90713,33.8656821771,-118.1247569841,"(33.8656821771, -118.1247569841)"
582,FA0242629,7-ELEVEN STORE 37191A,"FOOD MKT RETAIL (1-1,999 SF) MODERATE RISK",4680 E OLYMPIC BLVD,LOS ANGELES,90022-3735,34.018373908899996,-118.1685047304,"(34.0183739089, -118.1685047304)"
583,FA0003711,7-11,"FOOD MKT RETAIL (2,000+ SF) LOW RISK",1516 LINCOLN BLVD,VENICE,90291,33.9974289063,-118.4593313635,"(33.9974289063, -118.4593313635)"
584,FA0003861,7-ELEVEN #23949-A,"FOOD MKT RETAIL (2,000+ SF) MODERATE RISK",1519 S BUNDY DR,LOS ANGELES,90025,34.0399278513,-118.46281781219999,"(34.0399278513, -118.4628178122)"
585,FA0004162,99 CENTS AND UP,"FOOD MKT RETAIL (1-1,999 SF) LOW RISK",3119 W 8TH ST,LOS ANGELES,90005,34.0578733849,-118.2948871911,"(34.0578733849, -118.2948871911)"
587,FA0177013,7-ELEVEN STORE #23034C,"FOOD MKT RETAIL (2,000+ SF) LOW RISK",738 E HOLT AVE,POMONA,91767,34.062599112,-117.735994088,"(34.062599112, -117.735994088)"
588,FA0003857,7-ELEVEN #13945-C,"FOOD MKT RETAIL (1-1,999 SF) LOW RISK",1550 MURCHISON AVE,POMONA,91768,34.0709488556,-117.77829812270001,"(34.0709488556, -117.7782981227)"
590,FA0002276,7-ELEVEN STORE,"FOOD MKT RETAIL (1-1,999 SF) LOW RISK",4401 REDONDO BEACH BLVD,LAWNDALE,90260,33.8743025477,-118.35286105530001,"(33.8743025477, -118.3528610553)"
591,FA0270358,7- ELEVEN,"FOOD MKT RETAIL (2,000+ SF) MODERATE RISK",200 S LOS ANGELES ST # A2,LOS ANGELES,90012,34.050172184000004,-118.2433666299,"(34.050172184, -118.2433666299)"
592,FA0003524,7 ELEVEN 13865,"FOOD MKT RETAIL (2,000+ SF) LOW RISK",22821 SATICOY ST,CANOGA PARK,91304,34.208437895799996,-118.6241115879,"(34.2084378958, -118.6241115879)"
594,FA0047447,7-ELEVEN FOOD #16226B,"FOOD MKT RETAIL (2,000+ SF) LOW RISK",1400 WESTWOOD BLVD,LOS ANGELES,90024,34.055147669,-118.44139196639999,"(34.055147669, -118.4413919664)"
595,FA0255352,99 CENT CITY,"FOOD MKT RETAIL (1-1,999 SF) LOW RISK",18340 COLIMA RD STE 1B,ROWLAND HEIGHTS,91748,33.9882474885,-117.90431429,"(33.9882474885, -117.90431429)"
596,FA0056922,99 CENTS ONLY STORE,"FOOD MKT RETAIL (2,000+ SF) LOW RISK",543 N AZUSA AVE UNIT #B,COVINA,91722,34.0901104876,-117.9079067233,"(34.0901104876, -117.9079067233)"
597,FA0004203,7-ELEVEN #18920-B,"FOOD MKT RETAIL (2,000+ SF) LOW RISK",7407 VAN NUYS BLVD,VAN NUYS,91405,34.2052053471,-118.44898637809999,"(34.2052053471, -118.4489863781)"
599,FA0003531,7-ELEVEN,"FOOD MKT RETAIL (2,000+ SF) LOW RISK",2801 W JAMES M WOOD BLVD,LOS ANGELES,90006,34.0560243125,-118.28924832450001,"(34.0560243125, -118.2892483245)"
600,FA0056832,7-ELEVEN #2136,"FOOD MKT RETAIL (1-1,999 SF) LOW RISK",7950 SANTA MONICA BLVD,WEST HOLLYWOOD,90046,34.0905155599,-118.3630555169,"(34.0905155599, -118.3630555169)"
601,FA0249673,7-ELEVEN STORE #17476C,"FOOD MKT RETAIL (1-1,999 SF) LOW RISK",5570 CAHUENGA BLVD,NORTH HOLLYWOOD,91601,34.1718540766,-118.3615573176,"(34.1718540766, -118.3615573176)"
602,FA0173643,7-ELEVEN STORE 39570A,"FOOD MKT RETAIL (1-1,999 SF) MODERATE RISK",1317 E WASHINGTON BLVD,LOS ANGELES,90021,34.0243659466,-118.2499341667,"(34.0243659466, -118.2499341667)"
603,FA0002309,7-ELEVEN,"FOOD MKT RETAIL (2,000+ SF) LOW RISK",504 S CITRUS AVE,AZUSA,91702,34.1140004038,-117.8900372283,"(34.1140004038, -117.8900372283)"
604,FA0170029,99 C + MART,"FOOD MKT RETAIL (1-1,999 SF) MODERATE RISK",1018 N CITRUS AVE,COVINA,91722,34.0975702227,-117.8900261881,"(34.0975702227, -117.8900261881)"
605,FA0004014,7-ELEVEN,"FOOD MKT RETAIL (2,000+ SF) LOW RISK",8243 SEPULVEDA BLVD,PANORAMA CITY,91402,34.2203452072,-118.4677114674,"(34.2203452072, -118.4677114674)"
606,FA0003967,7-ELEVEN #34208B,"FOOD MKT RETAIL (2,000+ SF) LOW RISK",7604 VINELAND AVE,SUN VALLEY,91352,34.2088201852,-118.3701011209,"(34.2088201852, -118.3701011209)"
607,FA0066776,7-ELEVEN #27083,"FOOD MKT RETAIL (1-1,999 SF) LOW RISK",500 W COLORADO ST,GLENDALE,91204,34.1422293649,-118.264701033,"(34.1422293649, -118.264701033)"
609,FA0003022,24 HOUR FITNESS,"FOOD MKT RETAIL (1-1,999 SF) LOW RISK",1601 PACIFIC COAST HWY STE 100,HERMOSA BEACH,90254,33.8669372156,-118.3941438065,"(33.8669372156, -118.3941438065)"
610,FA0056728,7-ELEVEN FOOD STORE #23289B,"FOOD MKT RETAIL (2,000+ SF) LOW RISK",805 W LAS TUNAS DR,SAN GABRIEL,91776,34.102645691599996,-118.1115942886,"(34.1026456916, -118.1115942886)"
611,FA0002152,7-11 FOOD STORE 17837,"FOOD MKT RETAIL (2,000+ SF) LOW RISK",44011 N SIERRA HWY,LANCASTER,93534,34.6823955043,-118.13450422700001,"(34.6823955043, -118.134504227)"
612,FA0180045,7-ELEVEN 34990H,"FOOD MKT RETAIL (2,000+ SF) MODERATE RISK",5530 VALLEY BLVD,LOS ANGELES,90032,34.074446571100005,-118.16229360049999,"(34.0744465711, -118.1622936005)"
616,FA0256141,7-ELEVEN STORE 35625B,"FOOD MKT RETAIL (1-1,999 SF) MODERATE RISK",14350 VICTORY BLVD STE 7,VAN NUYS,91401,34.1866405029,-118.4461820255,"(34.1866405029, -118.4461820255)"
617,FA0003799,7-ELEVEN STORE # 26998B,"FOOD MKT RETAIL (1-1,999 SF) LOW RISK",12450 BURBANK BLVD,VALLEY VILLAGE,91607,34.171969228,-118.4047722243,"(34.171969228, -118.4047722243)"
619,FA0003977,7-ELEVEN #19651-B,"FOOD MKT RETAIL (1-1,999 SF) LOW RISK",1602 SANTA MONICA BLVD,SANTA MONICA,90404,34.025576809099995,-118.4836442534,"(34.0255768091, -118.4836442534)"
620,FA0269736,98 OUTLET,"FOOD MKT RETAIL (1-1,999 SF) LOW RISK",8334 GARVEY AVE,ROSEMEAD,91770,34.0626295029,-118.0869020255,"(34.0626295029, -118.0869020255)"
621,FA0056749,7-ELEVEN STORE 24389-D,"FOOD MKT RETAIL (1-1,999 SF) MODERATE RISK",14240 S HAWTHORNE BLVD,HAWTHORNE,90250,33.902232915300004,-118.3520180462,"(33.9022329153, -118.3520180462)"
622,FA0004187,7-ELEVEN #25293-A,"FOOD MKT RETAIL (2,000+ SF) LOW RISK",1319 N ALTADENA DR,PASADENA,91104,34.1689174686,-118.098671216,"(34.1689174686, -118.098671216)"
624,FA0250500,7 - ELEVEN  STORE  37275B,"FOOD MKT RETAIL (1-1,999 SF) LOW RISK",2614 N WILMNGTON AVE,COMPTON,90222,33.9156248138,-118.2389725627,"(33.9156248138, -118.2389725627)"
625,FA0003528,7 ELEVEN,"FOOD MKT RETAIL (2,000+ SF) LOW RISK",1075 N GRAND AVE,COVINA,91723,34.0991325129,-117.8727232916,"(34.0991325129, -117.8727232916)"
626,FA0004320,99 CENTS ONLY STORE,"FOOD MKT RETAIL (2,000+ SF) LOW RISK",606 E HOLT AVE,POMONA,91767,34.0619751432,-117.7390323106,"(34.0619751432, -117.7390323106)"
627,FA0002297,7-ELEVEN STORE #13838A,"FOOD MKT RETAIL (1-1,999 SF) LOW RISK",1133 E BROADWAY,GLENDALE,91205,34.1465390225,-118.2403079769,"(34.1465390225, -118.2403079769)"
628,FA0002582,99 CENTS ONLY STORE #041,"FOOD MKT RETAIL (2,000+ SF) LOW RISK",6121 W WILSHIRE BLVD,LOS ANGELES,90048,34.0632486422,-118.36213354270001,"(34.0632486422, -118.3621335427)"
629,FA0002326,7-ELEVEN STORE-39362A,"FOOD MKT RETAIL (2,000+ SF) LOW RISK",2000 N HOLLYWOOD WAY,BURBANK,91505,34.185222358400004,-118.3485615507,"(34.1852223584, -118.3485615507)"
630,FA0002482,99 CENTS ONLY STORE #246,"FOOD MKT RETAIL (2,000+ SF) LOW RISK",1504 FOOTHILL BLVD,LA VERNE,91750,34.1158597976,-117.77454645450001,"(34.1158597976, -117.7745464545)"
631,FA0156655,7-ELEVEN STORE 13876D,"FOOD MKT RETAIL (1-1,999 SF) LOW RISK",146 N HUBBARD AVE,SAN FERNANDO,91340,34.2923723645,-118.4466892379,"(34.2923723645, -118.4466892379)"
632,FA0177211,300 VICTORIA MARKET,"FOOD MKT RETAIL (1-1,999 SF) LOW RISK",300 W VICTORIA AVE,CARSON,90746,34.018095656599996,-118.1003115469,"(34.0180956566, -118.1003115469)"
634,FA0056600,24 HOUR FITNESS,"FOOD MKT RETAIL (1-1,999 SF) LOW RISK",125 N 1ST AVE,ARCADIA,91006,34.1381050723,-118.02868015850001,"(34.1381050723, -118.0286801585)"
635,FA0056774,7-ELEVEN,"FOOD MKT RETAIL (1-1,999 SF) LOW RISK",11249 TAMPA AVE,PORTER RANCH,91326,34.274465436999996,-118.5571903862,"(34.274465437, -118.5571903862)"
636,FA0003849,7-ELEVEN #18534-C,"FOOD MKT RETAIL (1-1,999 SF) LOW RISK",5763 HOLLYWOOD BLVD,LOS ANGELES,90028,34.1018601599,-118.3150660921,"(34.1018601599, -118.3150660921)"
637,FA0056918,99 CENTS ONLY STORE #106,"FOOD MKT RETAIL (1-1,999 SF) LOW RISK",8966 RESEDA BLVD,NORTHRIDGE,91325,34.2337599587,-118.5358859458,"(34.2337599587, -118.5358859458)"
638,FA0004155,99 CENTS ONLY STORE #036,"FOOD MKT RETAIL (1-1,999 SF) LOW RISK",20914 SHERMAN WAY,CANOGA PARK,91303,34.2008554966,-118.5888897749,"(34.2008554966, -118.5888897749)"
639,FA0167849,7-ELEVEN STORE 18406D,"FOOD MKT RETAIL (1-1,999 SF) LOW RISK",5000 WILSHIRE BLVD,LOS ANGELES,90036,34.0619553059,-118.3387350966,"(34.0619553059, -118.3387350966)"
640,FA0056830,7-ELEVEN #25304D,"FOOD MKT RETAIL (1-1,999 SF) LOW RISK",8500 W OLYMPIC BLVD,LOS ANGELES,90035,34.059260311100005,-118.37665850329999,"(34.0592603111, -118.3766585033)"
641,FA0003348,24 HOUR FITNESS #890,"FOOD MKT RETAIL (1-1,999 SF) LOW RISK",4821 DEL AMO BLVD,LAKEWOOD,90712,33.8474391653,-118.13635349239999,"(33.8474391653, -118.1363534924)"
642,FA0003981,7-ELEVEN,"FOOD MKT RETAIL (2,000+ SF) LOW RISK",8724 FOOTHILL BLVD,SUNLAND,91040,34.2601952276,-118.32374971200001,"(34.2601952276, -118.323749712)"
643,FA0267077,7-ELEVEN STORE#18533C,"FOOD MKT RETAIL (1-1,999 SF) LOW RISK",1810 N CAHUENGA BLVD,LOS ANGELES,90028-5055,34.1042002276,-118.3297916175,"(34.1042002276, -118.3297916175)"
645,FA0056784,7-ELEVEN STORE #18869A,"FOOD MKT RETAIL (2,000+ SF) LOW RISK",10565 RIVERSIDE DR,NORTH HOLLYWOOD,91602,34.1523640482,-118.3608554089,"(34.1523640482, -118.3608554089)"
646,FA0171571,7-ELEVEN STORE 19973D,"FOOD MKT RETAIL (2,000+ SF) LOW RISK",2500 W BURBANK BLVD,BURBANK,91505,34.1786424744,-118.3379883612,"(34.1786424744, -118.3379883612)"
647,FA0003522,7 ELEVEN FOOD STORE #13830C,"FOOD MKT RETAIL (2,000+ SF) LOW RISK",600 N GLENOAKS BLVD,BURBANK,91502,34.1870946126,-118.3111021743,"(34.1870946126, -118.3111021743)"
648,FA0066245,99 CENT MAIN  DISCOUNT,"FOOD MKT RETAIL (1-1,999 SF) LOW RISK",10102 S MAIN ST,LOS ANGELES,90003,33.9444677635,-118.27370965760001,"(33.9444677635, -118.2737096576)"
649,FA0002164,76 GAS STATION SNACK SHOP,"FOOD MKT RETAIL (1-1,999 SF) LOW RISK",20841 DEVONSHIRE ST,CHATSWORTH,91311,34.257408060799996,-118.58780421729999,"(34.2574080608, -118.5878042173)"
650,FA0056766,7-ELEVEN #17889D,"FOOD MKT RETAIL (2,000+ SF) LOW RISK",776 N MACLAY AVE,SAN FERNANDO,91340,34.290916749299996,-118.43032091010001,"(34.2909167493, -118.4303209101)"
651,FA0222820,99 CENTS DOLLAR BARGAIN,"FOOD MKT RETAIL (1-1,999 SF) LOW RISK",6939 EASTERN AVE # C,BELL GARDENS,90201-3901,33.9696546956,-118.1646297127,"(33.9696546956, -118.1646297127)"
652,FA0002113,57 EXPRESS,"FOOD MKT RETAIL (1-1,999 SF) LOW RISK",3111 W TEMPLE AVE,POMONA,91768,34.0444817183,-117.8024390754,"(34.0444817183, -117.8024390754)"
653,FA0003713,7-ELEVEN FOOD STORE #18303,"FOOD MKT RETAIL (1-1,999 SF) LOW RISK",4460 SANTA MONICA BLVD,LOS ANGELES,90029,34.0907069296,-118.2865143612,"(34.0907069296, -118.2865143612)"
654,FA0138118,7-ELEVEN,"FOOD MKT RETAIL (1-1,999 SF) LOW RISK",3845 E 3RD ST,LOS ANGELES,90063,34.033528603200004,-118.18479313520001,"(34.0335286032, -118.1847931352)"
655,FA0002133,7- ELEVEN #27356-A,"FOOD MKT RETAIL (2,000+ SF) LOW RISK",100 W IMPERIAL AVE STE A,EL SEGUNDO,90245,33.9307209641,-118.4159932171,"(33.9307209641, -118.4159932171)"
656,FA0003019,24 HOUR FITNESS CLUB #916,"FOOD MKT RETAIL (1-1,999 SF) LOW RISK",110 TOWNE CENTER DR,COMPTON,90220,33.8779522941,-118.2210252893,"(33.8779522941, -118.2210252893)"
657,FA0004168,7-ELEVEN #35991,"FOOD MKT RETAIL (2,000+ SF) LOW RISK",13203 TELEGRAPH RD,SANTA FE SPRINGS,90670,33.9421853577,-118.0510400523,"(33.9421853577, -118.0510400523)"
658,FA0257148,7 TO 2 LIQUOR STORE,"FOOD MKT RETAIL (1-1,999 SF) LOW RISK",16904 PARTHENIA ST,NORTHRIDGE,91343,34.2284455056,-118.5004605261,"(34.2284455056, -118.5004605261)"
661,FA0243779,7 ELEVEN #37215A,"FOOD MKT RETAIL (2,000+ SF) LOW RISK",3330 W FLORENCE AVE,LOS ANGELES,90043-4706,33.974513709200004,-118.3304999307,"(33.9745137092, -118.3304999307)"
662,FA0004139,98~ CITY,"FOOD MKT RETAIL (1-1,999 SF) LOW RISK",13961 AMAR RD,LA PUENTE,91746,34.0530172556,-117.97326281030001,"(34.0530172556, -117.9732628103)"
663,FA0003792,7-ELEVEN #23050,"FOOD MKT RETAIL (2,000+ SF) LOW RISK",13701 S HAWTHORNE BLVD,HAWTHORNE,90250,33.9077391896,-118.35310901790001,"(33.9077391896, -118.3531090179)"
664,FA0003836,7-ELEVEN #14020,"FOOD MKT RETAIL (2,000+ SF) LOW RISK",9349 E SLAUSON AVE,PICO RIVERA,90660,33.9689658284,-118.09797449940001,"(33.9689658284, -118.0979744994)"
665,FA0002283,7-ELEVEN #13898-D,"FOOD MKT RETAIL (2,000+ SF) LOW RISK",13919 HUBBARD ST,SYLMAR,91342,34.3024275946,-118.4361886024,"(34.3024275946, -118.4361886024)"
666,FA0202751,7 - ELEVEN STORE 16417A,"FOOD MKT RETAIL (1-1,999 SF) LOW RISK",4041 PECK RD,EL MONTE,91732,34.0784350275,-118.02074768940001,"(34.0784350275, -118.0207476894)"
668,FA0056822,7-ELEVEN STORE #27548-D,"FOOD MKT RETAIL (2,000+ SF) LOW RISK",114 N GAFFEY ST,SAN PEDRO,90731,33.7430072485,-118.2921079884,"(33.7430072485, -118.2921079884)"
669,FA0004160,99 CENTS ONLY STORE #054,"FOOD MKT RETAIL (2,000+ SF) LOW RISK",6401 SAN FERNANDO RD,GLENDALE,91201,34.1659656111,-118.2887834434,"(34.1659656111, -118.2887834434)"
672,FA0003999,7-ELEVEN STORE #34214A,"FOOD MKT RETAIL (2,000+ SF) LOW RISK",14219 S WESTERN AVE,GARDENA,90249,33.9022417444,-118.3097639193,"(33.9022417444, -118.3097639193)"
673,FA0171592,7-ELEVEN #18890D,"FOOD MKT RETAIL (2,000+ SF) LOW RISK",1201 CENTINELA AVE,INGLEWOOD,90302,33.9760215312,-118.3598331084,"(33.9760215312, -118.3598331084)"
674,FA0180860,7-ELEVEN STORE 34911B,"FOOD MKT RETAIL (2,000+ SF) LOW RISK",945 W PACIFIC COAST HWY,WILMINGTON,90744,33.7906038023,-118.2745332285,"(33.7906038023, -118.2745332285)"
675,FA0002270,7-ELEVEN #20763B,"FOOD MKT RETAIL (2,000+ SF) LOW RISK",5600 SAN VICENTE BLVD,LOS ANGELES,90019,34.0538209477,-118.3548384987,"(34.0538209477, -118.3548384987)"
676,FA0240533,7-ELEVEN STORE 16105E,"FOOD MKT RETAIL (1-1,999 SF) MODERATE RISK",3300 W 135TH ST,HAWTHORNE,90250,33.9091549067,-118.3309578277,"(33.9091549067, -118.3309578277)"
677,FA0002317,7-ELEVEN #13837D,"FOOD MKT RETAIL (2,000+ SF) LOW RISK",425 E BROADWAY,GLENDALE,91205,34.1465850411,-118.25035900370001,"(34.1465850411, -118.2503590037)"
678,FA0056838,7-ELEVEN 13826-A,"FOOD MKT RETAIL (2,000+ SF) LOW RISK",600 N HOLLYWOOD WAY,BURBANK,91505,34.1612769798,-118.3434227118,"(34.1612769798, -118.3434227118)"
680,FA0003998,7-ELEVEN #26649C,"FOOD MKT RETAIL (1-1,999 SF) LOW RISK",12100 GARFIELD AVE,SOUTH GATE,90280,33.916684779200004,-118.1685890474,"(33.9166847792, -118.1685890474)"
681,FA0004154,99 CENTS ONLY STORE #266,"FOOD MKT RETAIL (2,000+ SF) LOW RISK",1820 W 182ND ST,TORRANCE,90504,33.865348872,-118.31035932969999,"(33.865348872, -118.3103593297)"
682,FA0056843,8/10 MINI MARKET,"FOOD MKT RETAIL (1-1,999 SF) LOW RISK",4054 S VERMONT AVE,LOS ANGELES,90037,34.0097645175,-118.29137433780001,"(34.0097645175, -118.2913743378)"
683,FA0202921,7-ELEVEN STORE 17498C,"FOOD MKT RETAIL (1-1,999 SF) LOW RISK",14557 VICTORY BLVD,VAN NUYS,91411-1619,34.1866874681,-118.45062916090001,"(34.1866874681, -118.4506291609)"
684,FA0138790,7-ELEVEN STORE #36453A,"FOOD MKT RETAIL (1-1,999 SF) MODERATE RISK",2161 E EL SEGUNDO BLVD,EL SEGUNDO,90245,33.9167714198,-118.3879147427,"(33.9167714198, -118.3879147427)"
685,FA0003796,7-ELEVEN #33634A,"FOOD MKT RETAIL (2,000+ SF) LOW RISK",20301 HAWTHORNE BLVD # #B,TORRANCE,90503,33.8482607659,-118.35388286870001,"(33.8482607659, -118.3538828687)"
686,FA0002587,99 CENTS ONLY STORE #063,"FOOD MKT RETAIL (2,000+ SF) LOW RISK",5270 SUNSET BLVD,LOS ANGELES,90029,34.0979443175,-118.30501516700001,"(34.0979443175, -118.305015167)"
688,FA0056712,7 ELEVEN,"FOOD MKT RETAIL (2,000+ SF) MODERATE RISK",3101 OVERLAND AVE,LOS ANGELES,90034,34.0304420577,-118.41626562569999,"(34.0304420577, -118.4162656257)"
689,FA0137594,7-ELEVEN STORE #22943C,"FOOD MKT RETAIL (2,000+ SF) LOW RISK",1546 W MISSION BLVD,POMONA,91766,34.054152165,-117.7731092623,"(34.054152165, -117.7731092623)"
691,FA0002302,7-ELEVEN #20270B,"FOOD MKT RETAIL (2,000+ SF) LOW RISK",21301 SHERMAN WAY,CANOGA PARK,91303,34.201196563,-118.59569321459999,"(34.201196563, -118.5956932146)"
692,FA0056603,24 HOUR FITNESS,"FOOD MKT RETAIL (1-1,999 SF) LOW RISK",4240 REDONDO BEACH BLVD,TORRANCE,90504,33.8743227156,-118.35031223879999,"(33.8743227156, -118.3503122388)"
694,FA0224007,7-ELEVEN STORE 39012B,"FOOD MKT RETAIL (1-1,999 SF) LOW RISK",7353 MELROSE AVE,LOS ANGELES,90046,34.0836032127,-118.34999946479999,"(34.0836032127, -118.3499994648)"
695,FA0003992,7-ELEVEN STORE # 18199,"FOOD MKT RETAIL (1-1,999 SF) LOW RISK",13307 MOORPARK ST,SHERMAN OAKS,91423,34.1504991348,-118.4231194714,"(34.1504991348, -118.4231194714)"
696,FA0003978,7-ELEVEN #24549,"FOOD MKT RETAIL (1-1,999 SF) MODERATE RISK",1221 ARTESIA BLVD,MANHATTAN BEACH,90266,33.8729803864,-118.39338095469999,"(33.8729803864, -118.3933809547)"
697,FA0056913,99 CENTS ONLY STORE #184,"FOOD MKT RETAIL (2,000+ SF) LOW RISK",2810 W ALHAMBRA RD,ALHAMBRA,91801,34.0980303447,-118.1546353895,"(34.0980303447, -118.1546353895)"
698,FA0056796,7-ELEVEN,"FOOD MKT RETAIL (1-1,999 SF) MODERATE RISK",8416 LANKERSHIM BLVD # 100,SUN VALLEY,91352,34.2229309046,-118.38776609930001,"(34.2229309046, -118.3877660993)"
699,FA0001947,24 HOUR FITNESS #130,"FOOD MKT RETAIL (1-1,999 SF) LOW RISK",2685 PACIFIC COAST HWY,TORRANCE,90505,33.7920464149,-118.33233122709998,"(33.7920464149, -118.3323312271)"
700,FA0056755,7-ELEVEN,"FOOD MKT RETAIL (2,000+ SF) LOW RISK",848 W 7TH ST,LOS ANGELES,90017,34.0490356078,-118.2595622323,"(34.0490356078, -118.2595622323)"
701,FA0252705,7-ELEVEN STORE 39366B,"FOOD MKT RETAIL (2,000+ SF) LOW RISK",5609 W SUNSET BLVD,LOS ANGELES,90028,34.098162041,-118.31181117540001,"(34.098162041, -118.3118111754)"
702,FA0003853,7-ELEVEN #34346,"FOOD MKT RETAIL (2,000+ SF) LOW RISK",1730 SEPULVEDA BLVD,TORRANCE,90501,33.8163527598,-118.309518936,"(33.8163527598, -118.309518936)"
703,FA0003863,7-ELEVEN #18350-C,"FOOD MKT RETAIL (2,000+ SF) LOW RISK",11299 W WASHINGTON BLVD,CULVER CITY,90066,34.0047449048,-118.414672495,"(34.0047449048, -118.414672495)"
708,FA0255990,700 SOUTH VERMONT CORP,"FOOD MKT RETAIL (1-1,999 SF) LOW RISK",700 S VERMONT AVE,LOS ANGELES,90005,34.0594371618,-118.2916008359,"(34.0594371618, -118.2916008359)"
710,FA0003975,7-ELEVEN #25739C,"FOOD MKT RETAIL (1-1,999 SF) LOW RISK",200 E LIVE OAK AVE,ARCADIA,91006,34.1079163575,-118.02422796629999,"(34.1079163575, -118.0242279663)"
711,FA0167777,7-ELEVEN STORE 33578C,"FOOD MKT RETAIL (2,000+ SF) MODERATE RISK",11807 VALLEY VIEW AVE,WHITTIER,90604,33.922516961,-118.0294287099,"(33.922516961, -118.0294287099)"
712,FA0003824,7-ELEVEN #349241,"FOOD MKT RETAIL (2,000+ SF) LOW RISK",7371 FLORENCE AVE,DOWNEY,90241,33.9591772272,-118.1408753327,"(33.9591772272, -118.1408753327)"
713,FA0138091,7-ELEVEN #39613,"FOOD MKT RETAIL (2,000+ SF) LOW RISK",3689 E COLORADO BLVD,PASADENA,91107,34.1464980014,-118.07365136540001,"(34.1464980014, -118.0736513654)"
714,FA0004488,99 AND GIFT SHOP,"FOOD MKT RETAIL (1-1,999 SF) LOW RISK",500 N HOOVER ST,LOS ANGELES,90004,34.0797189714,-118.2842969994,"(34.0797189714, -118.2842969994)"
715,FA0179185,7-ELEVEN STORE 18893C,"FOOD MKT RETAIL (2,000+ SF) MODERATE RISK",1151 W REDONDO BEACH BLVD,GARDENA,90247,33.8923952453,-118.2956862831,"(33.8923952453, -118.2956862831)"
717,FA0002280,7-ELEVEN STORE #20007E,"FOOD MKT RETAIL (1-1,999 SF) MODERATE RISK",12055 VANOWEN ST,NORTH HOLLYWOOD,91606,34.1940877678,-118.3961985631,"(34.1940877678, -118.3961985631)"
720,FA0167551,99 CENT ONLY STORES,"FOOD MKT RETAIL (2,000+ SF) LOW RISK",2762 W IMPERIAL HWY,INGLEWOOD,90303-3111,33.9294830236,-118.32371168360001,"(33.9294830236, -118.3237116836)"
721,FA0268057,7-ELEVEN STORE 25481D,"FOOD MKT RETAIL (2,000+ SF) LOW RISK",6915 ROSEMEAD BLVD,SAN GABRIEL,91755,34.123347816599995,-118.07311774680001,"(34.1233478166, -118.0731177468)"
722,FA0003532,7 ELEVEN STORE #18866,"FOOD MKT RETAIL (2,000+ SF) LOW RISK",3227 N GLENOAKS BLVD,BURBANK,91504,34.2054412266,-118.3396138201,"(34.2054412266, -118.3396138201)"
723,FA0001968,3 STAR DISCOUNT STORE,"FOOD MKT RETAIL (2,000+ SF) LOW RISK",2222 S VERMONT AVE,LOS ANGELES,90007,34.035324439200004,-118.2913784691,"(34.0353244392, -118.2913784691)"
724,FA0261130,7-ELEVEN STORE 25887,"FOOD MKT RETAIL (2,000+ SF) LOW RISK",11285 SANTA MONICA BLVD,LOS ANGELES,90025,34.0465136517,-118.4484381665,"(34.0465136517, -118.4484381665)"
725,FA0056895,99 CENTS ONLY STORE,"FOOD MKT RETAIL (2,000+ SF) LOW RISK",11811 S HAWTHORNE BLVD,HAWTHORNE,90250,33.9270979624,-118.3527567217,"(33.9270979624, -118.3527567217)"
726,FA0002305,7-ELEVEN # 19687B,"FOOD MKT RETAIL (2,000+ SF) LOW RISK",11340 MAGNOLIA BLVD,NORTH HOLLYWOOD,91601,34.1647369634,-118.3786620049,"(34.1647369634, -118.3786620049)"
728,FA0178526,7-ELEVEN,"FOOD MKT RETAIL (2,000+ SF) MODERATE RISK",240 ADAMS BLVD,LOS ANGELES,90007,34.0261879734,-118.27204686889999,"(34.0261879734, -118.2720468689)"
729,FA0245620,7-ELEVEN STORE 37227A,"FOOD MKT RETAIL (2,000+ SF) MODERATE RISK",5279 W OLYMPIC BLVD,LOS ANGELES,90036,34.057563,-118.34551200000001,"(34.057563, -118.345512)"
730,FA0004010,7-ELEVEN # 13894F,"FOOD MKT RETAIL (1-1,999 SF) LOW RISK",18514 PLUMMER ST,NORTHRIDGE,91324,34.2426004664,-118.53707371870001,"(34.2426004664, -118.5370737187)"
731,FA0056717,7 ELEVEN #23873E,"FOOD MKT RETAIL (2,000+ SF) LOW RISK",15211 E AMAR RD,LA PUENTE,91744,34.0383462047,-117.95316561870001,"(34.0383462047, -117.9531656187)"
732,FA0202559,7- ELEVEN STORE #39763A,"FOOD MKT RETAIL (2,000+ SF) LOW RISK",3079 N SAN FERNANDO RD,LOS ANGELES,90065,34.1145124006,-118.24545306379999,"(34.1145124006, -118.2454530638)"
736,FA0267137,7-ELEVEN STORE 13994B,"FOOD MKT RETAIL (1-1,999 SF) MODERATE RISK",705 E 5TH ST,AZUSA,91702,34.1298492627,-117.89607990110001,"(34.1298492627, -117.8960799011)"
740,FA0056768,7-ELEVEN,"FOOD MKT RETAIL (2,000+ SF) LOW RISK",2600 N MAIN ST,LOS ANGELES,90031,34.0658423638,-118.2149443565,"(34.0658423638, -118.2149443565)"
741,FA0004192,7-ELEVEN #15964-E,"FOOD MKT RETAIL (2,000+ SF) LOW RISK",265 S KINGSLEY DR,LOS ANGELES,90004,34.0693374547,-118.3030818006,"(34.0693374547, -118.3030818006)"
742,FA0222560,1 & UP ONLY STORE,"FOOD MKT RETAIL (2,000+ SF) LOW RISK",11151 AVALON BLVD # 105,LOS ANGELES,90061,33.9334507914,-118.2652323734,"(33.9334507914, -118.2652323734)"
743,FA0166070,7-ELEVEN #39699A,"FOOD MKT RETAIL (2,000+ SF) MODERATE RISK",6073 VAN NUYS BLVD,VAN NUYS,91401,34.1807726425,-118.44898731709999,"(34.1807726425, -118.4489873171)"
744,FA0003974,7-ELEVEN,"FOOD MKT RETAIL (2,000+ SF) LOW RISK",10454 E ARTESIA BLVD STE A,BELLFLOWER,90706,33.872789103,-118.1112261901,"(33.872789103, -118.1112261901)"
745,FA0144619,7-ELEVEN STORE 34189B,"FOOD MKT RETAIL (1-1,999 SF) LOW RISK",20521 WESTERN AVE,TORRANCE,90501,33.844534851599995,-118.3094556276,"(33.8445348516, -118.3094556276)"
746,FA0002292,7-ELEVEN #21971C,"FOOD MKT RETAIL (1-1,999 SF) LOW RISK",2601 ARTESIA BLVD,REDONDO BEACH,90278,33.8731704795,-118.3639778749,"(33.8731704795, -118.3639778749)"
747,FA0239276,98 CENT PLUS DISCOUNT STORE,"FOOD MKT RETAIL (2,000+ SF) LOW RISK",1000 W 1ST ST STE 130,SAN PEDRO,90731-1990,33.7433778827,-118.2991890327,"(33.7433778827, -118.2991890327)"
748,FA0056803,7-ELEVEN #18607B,"FOOD MKT RETAIL (1-1,999 SF) LOW RISK",12463 VICTORY BLVD,NORTH HOLLYWOOD,91606,34.1868404966,-118.40498053209998,"(34.1868404966, -118.4049805321)"
749,FA0138933,24 HOUR FITNESS #490,"FOOD MKT RETAIL (1-1,999 SF) LOW RISK",5045 W SLAUSON AVE,LOS ANGELES,90056,33.987748702,-118.3655129319,"(33.987748702, -118.3655129319)"
750,FA0002324,7-ELEVEN,"FOOD MKT RETAIL (2,000+ SF) LOW RISK",13450 OSBORNE ST,PACOIMA,91331,34.241793989499996,-118.42613822930001,"(34.2417939895, -118.4261382293)"
751,FA0056815,7-ELEVEN #18834-C,"FOOD MKT RETAIL (2,000+ SF) LOW RISK",22808 VENTURA BLVD,WOODLAND HILLS,91364,34.1656371872,-118.62366258860001,"(34.1656371872, -118.6236625886)"
752,FA0053691,7-ELEVEN #39403,"FOOD MKT RETAIL (1-1,999 SF) LOW RISK",20250 SHERMAN WAY,WINNETKA,91306,34.200847069,-118.57477866459999,"(34.200847069, -118.5747786646)"
